,ed_num,ed_name,pd_num,pd_sufx,pd_ltr,type,adv_num,site_name,site_name_fr,addr,addr_fr,municipality,municipality_fr,province,post_code,lat,lon,confidence,quality,score,easting,northing
26333,35001,Ajax,91,0,A,Ordinary,606,Terry Fox Public School,École publique Terry Fox,30 Kerrison Drive West,30 Kerrison Drive Ouest,Ajax,Ajax,ON,L1Z 1K1,43.870010151306765,-79.02687817765003,9.0,PointAddress,100.0,84154530.44674273,55307342.69120861
26334,35001,Ajax,91,0,B,Mobile,606,Harwood Place,Harwood Place,240 Old Harwood Avenue,"240, avenue Old Harwood",Ajax,Ajax,ON,L1T 0N2,43.86543435192455,-79.02762311298959,9.0,PointAddress,100.0,84162867.12427333,55304762.304129034
26435,35001,Ajax,500,0,,Mobile,609,Harwood Manor,Harwood Manor,655 Harwood Avenue South,"655, avenue Harwood Sud",Ajax,Ajax,ON,L1S 3M1,43.83575140827514,-79.0147631516248,8.0,PointAddress,100.0,84103101.60358381,55216198.629901506
26436,35001,Ajax,500,0,,Mobile,609,Winbourne Park Long Term Care Centre,Centre de soins de longue durée Winbourne Park,1020 Westney Road North,1020 Westney Road North,Ajax,Ajax,ON,L1T 4K6,43.87663238476379,-79.04334197001351,9.0,StreetAddress,100.0,84255527.24065061,55382484.48396645
26437,35001,Ajax,501,0,,Mobile,609,Ashley Manor,Ashley Manor,40 Kitney Drive,40 Kitney Drive,Ajax,Ajax,ON,L1S 4G3,43.841610785186624,-79.02031764645933,9.0,PointAddress,100.0,84134282.21106783,55245899.662284166
26438,35001,Ajax,501,0,,Mobile,609,Ballycliffe Lodge Nursing Home,Ballycliffe Lodge Nursing Home,70 Station Street,"70, rue Station",Ajax,Ajax,ON,L1S 1R9,43.85080910744968,-79.02477454567476,9.0,PointAddress,100.0,84155845.09209715,55275263.09297685
26439,35001,Ajax,501,0,,Mobile,609,Westwood Manor,Westwood Manor,960 Westney Road South,960 Westney Road South,Ajax,Ajax,ON,L1S 7L1,43.83074056059242,-79.01652817470719,9.0,PointAddress,100.0,84118315.99006009,55217214.646807395
26638,35002,Algoma--Manitoulin--Kapuskasing,500,0,,Mobile,601,Extendicare - Kapuskasing,Soins prolongés - Kapuskasing,45 Ontario Avenue,"45, avenue Ontario",Kapuskasing,Kapuskasing,ON,P5N 2Y5,49.41777698075849,-82.40982629569856,9.0,StreetAddress,100.0,108604207.72349454,84002863.32089359
26639,35002,Algoma--Manitoulin--Kapuskasing,500,0,,Mobile,601,North Centennial Manor,North Centennial Manor,2 Kimberly Drive,2 Kimberly Drive,Kapuskasing,Kapuskasing,ON,P5N 1L5,49.42457067551472,-82.43188162297744,9.0,StreetAddress,100.0,108865402.124084,84218922.7547218
26640,35002,Algoma--Manitoulin--Kapuskasing,500,0,,Mobile,601,Sensenbrenner Hospital,Hôpital Sensenbrenner,101 Progress Crescent,101 Progress Crescent,Kapuskasing,Kapuskasing,ON,P5N 3H5,49.42360297087421,-82.42862456533932,9.0,StreetAddress,100.0,108826695.19643813,84186998.27219336
26641,35002,Algoma--Manitoulin--Kapuskasing,501,0,,Mobile,622,Golden Birches Seniors Residence,Golden Birches Seniors Residence,525 Causley Street,"525, rue Causley",Blind River,Blind River,ON,P0R 1B0,46.18604424267837,-82.92336179948958,9.0,StreetAddress,100.0,119367751.78768857,83444643.74726893
26642,35002,Algoma--Manitoulin--Kapuskasing,501,0,,Mobile,622,Huron Lodge-Elliot Lake,Huron Lodge-Elliot Lake,100 Manitoba Road,100 Manitoba Road,Elliot Lake,Elliot Lake,ON,P5A 3T1,46.38484064227573,-82.64716560970096,8.0,PointAddress,100.0,115287622.73956534,81156812.51872484
26643,35002,Algoma--Manitoulin--Kapuskasing,501,0,,Mobile,622,St. Joseph's Manor,St. Joseph's Manor,70 Spine Road,70 Spine Road,Elliot Lake,Elliot Lake,ON,P5A 1X2,46.38424086229148,-82.66114895888083,9.0,StreetAddress,100.0,115476040.72304438,81284962.5493663
26644,35002,Algoma--Manitoulin--Kapuskasing,502,0,,Mobile,618,Manitoulin Centennial Manor,Manitoulin Centennial Manor,70 Robinson Street,"70, rue Robinson",Little Current,Little Current,ON,P0P 1K0,45.98324195201473,-81.93561026157684,9.0,StreetAddress,100.0,106987879.02216248,74511262.1405586
26645,35002,Algoma--Manitoulin--Kapuskasing,502,0,,Mobile,618,Manitoulin Lodge Nursing Home,Centre d'accueil Manitoulin Lodge,3 Main Street,"3, rue Main",Gore Bay,Gore Bay,ON,P0P 1H0,45.91458764651695,-82.46445435348306,9.0,StreetAddress,100.0,113435700.80919544,78719917.55726743
26646,35002,Algoma--Manitoulin--Kapuskasing,503,0,,Mobile,600,Foyer des Pionniers,Foyer des Pionniers,67 15th Street,67 15th Street,Hearst,Hearst,ON,P0L 1N0,49.689907571977066,-83.68117320430143,9.0,StreetAddress,100.0,126643444.74426322,98545288.55461515
26647,35002,Algoma--Manitoulin--Kapuskasing,503,0,,Mobile,600,Notre-Dame Hospital,Hôpital Notre-Dame,1405 Edouard Street,"1405, rue Edouard",Hearst,Hearst,ON,P0L 1N0,49.41083400000005,-82.47720949999996,9.0,PostalExt,86.67,109440982.18225564,84621775.23272006
26860,35003,Aurora--Oak Ridges--Richmond Hill,500,0,,Mobile,600,Chartwell Park Place Retirement Residence,Centre d'accueil Chartwell Park Place,15055 Yonge Street,"15055, rue Yonge",Aurora,Aurora,ON,L4G 6T4,43.99496467721735,-79.46638471631393,9.0,PointAddress,100.0,86994804.74532829,57323110.48070571
26861,35003,Aurora--Oak Ridges--Richmond Hill,500,0,,Mobile,600,Sunrise of Aurora,Sunrise of Aurora,3 Golf Links Drive,3 Golf Links Drive,Aurora,Aurora,ON,L4G 7Y4,43.99055196638604,-79.4663143501642,9.0,PointAddress,100.0,86997870.51663904,57317195.20336152
26862,35003,Aurora--Oak Ridges--Richmond Hill,500,0,,Mobile,600,Willows Estate Nursing Home,Centre d'accueil Willows Estate,13837 Yonge Street,"13837, rue Yonge",Aurora,Aurora,ON,L4G 0N9,43.96528427206784,-79.45930645641326,9.0,StreetAddress,100.0,86969551.86032556,57254262.49137937
26863,35003,Aurora--Oak Ridges--Richmond Hill,501,0,,Mobile,609,Elginwood Long Term Care,Elginwood Long Term Care,182 Yorkland Street,"182, rue Yorkland",Richmond Hill,Richmond Hill,ON,L4S 2M9,43.9020347659994,-79.44022979251461,9.0,PointAddress,100.0,86888148.31596045,57090319.84337893
26864,35003,Aurora--Oak Ridges--Richmond Hill,501,0,,Mobile,609,Mon Sheong Richmond Hill Long Term Care Centre,Mon Sheong Richmond Hill Long Term Care Centre,11199 Yonge Street,"11199, rue Yonge",Richmond Hill,Richmond Hill,ON,L4S 1L2,43.901084702752584,-79.44414175627587,9.0,PointAddress,100.0,86915992.97387013,57106234.494242474
26865,35003,Aurora--Oak Ridges--Richmond Hill,502,0,,Mobile,610,Brookside Court Retirement Residence,Brookside Court Retirement Residence,980 Elgin Mills Road East,980 Elgin Mills Road East,Richmond Hill,Richmond Hill,ON,L4S 1M4,43.89481317135938,-79.41218569363463,8.0,PointAddress,100.0,86700330.90388833,56958799.58686387
26866,35003,Aurora--Oak Ridges--Richmond Hill,502,0,,Mobile,610,Delmanor Elgin Mills,Delmanor Elgin Mills,80 Elgin Mills Road East,80 Elgin Mills Road East,Richmond Hill,Richmond Hill,ON,L4C 0L3,43.89021114524724,-79.43887721097555,8.0,PointAddress,100.0,86888267.93971808,57069405.11362213
26867,35003,Aurora--Oak Ridges--Richmond Hill,502,0,,Mobile,610,Hilltop Place Retirement Residence,Hilltop Place Retirement Residence,1000 Elgin Mills Road East,1000 Elgin Mills Road East,Richmond Hill,Richmond Hill,ON,L4S 1M4,43.894959185836825,-79.41178923029597,9.0,StreetAddress,100.0,86697484.01884925,56957258.97448327
27067,35004,Barrie--Innisfil,500,0,,Mobile,609,Lakeside Retirement Residence,Lakeside Retirement Residence,985 Innisfil Beach Road,985 Innisfil Beach Road,Innisfil,Innisfil,ON,L9S 4M8,44.31442316359594,-79.5497379407386,9.0,StreetAddress,100.0,87317978.8516238,58101171.88470852
27068,35004,Barrie--Innisfil,500,0,,Mobile,609,The Barrington Retirement Home,Maison de retraite The Barrington,450 Yonge Street,"450, rue Yonge",Barrie,Barrie,ON,L4N 4E2,44.36394227863712,-79.65950102709309,9.0,PointAddress,100.0,88056410.49334273,58664679.55904188
27069,35004,Barrie--Innisfil,501,0,,Mobile,605,Roberta Place,Roberta Place,503 Essa Road,503 Essa Road,Barrie,Barrie,ON,L4N 9E4,44.34197965696226,-79.70714995048742,9.0,PointAddress,100.0,88417685.13425922,58856654.6736715
27070,35004,Barrie--Innisfil,501,0,,Mobile,605,Roberta Place Retirement Lodge,Roberta Place Retirement Lodge,489 Essa Road,489 Essa Road,Barrie,Barrie,ON,L4N 9E4,44.342961212331865,-79.70660798615019,9.0,PointAddress,100.0,88412951.12524162,58855407.44558271
27071,35004,Barrie--Innisfil,502,0,,Mobile,602,Mill Creek Care Centre,Mill Creek Care Centre,286 Hurst Drive,286 Hurst Drive,Barrie,Barrie,ON,L4N 0Z3,44.36901544549576,-79.6569439326565,10.0,PointAddress,100.0,88033892.24665874,58659435.37651161
27072,35004,Barrie--Innisfil,502,0,,Mobile,602,Serenity Assisted Living,Serenity Assisted Living,410 Hurst Drive,410 Hurst Drive,Barrie,Barrie,ON,L4N 6N1,44.37300746436589,-79.66833004524207,9.0,PointAddress,100.0,88112247.94809054,58717040.27712764
27284,35005,Barrie--Springwater--Oro-Medonte,500,0,,Mobile,610,Barrie Manor,Manoir Barrie,340 Blake Street,"340, rue Blake",Barrie,Barrie,ON,L4M 1L3,44.39766648017758,-79.6556521243579,9.0,PointAddress,100.0,88000950.10066634,58690342.138900004
27285,35005,Barrie--Springwater--Oro-Medonte,500,0,,Mobile,610,Sara Vista Nursing Centre,Sara Vista Nursing Centre,27 Simcoe Street,"27, rue Simcoe",Elmvale,Elmvale,ON,L0L 1P0,44.5820891369085,-79.86216020332891,9.0,StreetAddress,100.0,89352491.0293821,59900984.122708485
27286,35005,Barrie--Springwater--Oro-Medonte,501,0,,Mobile,611,Coleman Care Centre,Centre d'accueil Coleman,140 Cundles Road West,140 Cundles Road West,Barrie,Barrie,ON,L4N 9X8,44.40061638250875,-79.71506015338423,8.0,PointAddress,100.0,88426219.41391313,58969228.808192976
27287,35005,Barrie--Springwater--Oro-Medonte,501,0,,Mobile,611,Whispering Pines Residence,Whispering Pines Residence,140 Letitia Street,"140, rue Letitia",Barrie,Barrie,ON,L4N 1P5,44.39099035227032,-79.71727261492283,8.0,PointAddress,100.0,88450242.80151209,58967084.94473996
27288,35005,Barrie--Springwater--Oro-Medonte,502,0,,Mobile,612,Mulcaster Mews,Mulcaster Mews,130 Mulcaster Street,"130, rue Mulcaster",Barrie,Barrie,ON,L4M 3M9,44.39474575714125,-79.68624590634188,9.0,PointAddress,100.0,88223056.13976255,58827857.204440765
27289,35005,Barrie--Springwater--Oro-Medonte,502,0,,Mobile,612,Simcoe Terrace Retirement Home,Simcoe Terrace Retirement Home,44 Donald Street,"44, rue Donald",Barrie,Barrie,ON,L4N 1E3,44.38683834120154,-79.70184267646094,9.0,StreetAddress,100.0,88342096.20907392,58889972.29186479
27290,35005,Barrie--Springwater--Oro-Medonte,503,0,,Mobile,612,Owen Hill Care Community,Owen Hill Care Community,130 Owen Street,"130, rue Owen",Barrie,Barrie,ON,L4M 3H7,44.39514738383642,-79.68998593438725,9.0,PointAddress,100.0,88249664.43835787,58845699.91547412
27291,35005,Barrie--Springwater--Oro-Medonte,503,0,,Mobile,612,Victoria Village Manor,Victoria Village Manor,78 Ross Street,"78, rue Ross",Barrie,Barrie,ON,L4N 1G3,44.39086837996994,-79.69885658895492,9.0,PointAddress,100.0,88317190.54296163,58881314.6029331
27519,35006,Bay of Quinte,500,0,,Mobile,606,Quinte Gardens Retirement Residence,Quinte Gardens Retirement Residence,30 College Street West,"30, rue College Ouest",Belleville,Belleville,ON,K8P 0A9,44.17639656879367,-77.39249222866013,9.0,StreetAddress,100.0,74721565.32046221,49814002.81110133
27520,35006,Bay of Quinte,500,0,,Mobile,606,The Richmond Retirement Residence,The Richmond Retirement Residence,175 Front Street North,"175, rue Front Nord",Belleville,Belleville,ON,K8P 4Y8,44.17809503165208,-77.39137782537972,9.0,PointAddress,99.91,74714899.73087862,49812323.562977746
27521,35006,Bay of Quinte,501,0,,Mobile,608,Bridge Street Retirement Residence,Bridge Street Retirement Residence,85 Bridge Street East,"85, rue Bridge Est",Belleville,Belleville,ON,K8N 1L9,44.16447389644547,-77.38031208200135,9.0,PointAddress,100.0,74669713.0253559,49762850.72377158
27522,35006,Bay of Quinte,501,0,,Mobile,608,Eden Place Retirement,Eden Place Retirement,38 Everett Street,"38, rue Everett",Belleville,Belleville,ON,K8P 3K2,44.1645571470945,-77.38793078339762,9.0,PointAddress,100.0,74707203.23743504,49786893.451246604
27523,35006,Bay of Quinte,501,0,,Mobile,608,Quinte Living Centre,Quinte Living Centre,370 Front Street,"370, rue Front",Belleville,Belleville,ON,K8N 5L9,44.16835532500435,-77.38591916492541,9.0,PointAddress,100.0,74694675.70336485,49784656.455629595
27524,35006,Bay of Quinte,502,0,,Mobile,610,Belleville General Hospital,Belleville General Hospital,265 Dundas Street East,"265, rue Dundas Est",Belleville,Belleville,ON,K8N 5A9,44.16384327615561,-77.36444059686077,9.0,PointAddress,100.0,74592063.3862836,49712360.76034238
27525,35006,Bay of Quinte,502,0,,Mobile,610,East Plaza Court Senior Citizens Complex,East Plaza Court Senior Citizens Complex,485 Bridge Street East,"485, rue Bridge Est",Belleville,Belleville,ON,K8N 1R9,44.17094306671312,-77.35228557201454,9.0,StreetAddress,100.0,74527523.75976121,49681920.43971903
27526,35006,Bay of Quinte,502,0,,Mobile,610,Emmanuel Seniors Residence,Emmanuel Seniors Residence,50 Rollins Drive,50 Rollins Drive,Belleville,Belleville,ON,K8N 5P8,44.173285219805024,-77.35644191886402,9.0,PointAddress,100.0,74546309.18534572,49697448.597211674
27527,35006,Bay of Quinte,503,0,,Mobile,607,Belmont Long Term Care Facility,Belmont Long Term Care Facility,250 Bridge Street West,"250, rue Bridge Ouest",Belleville,Belleville,ON,K8P 5N3,44.15957744214889,-77.40391053136361,9.0,PointAddress,100.0,74789521.38149011,49831852.92767056
27528,35006,Bay of Quinte,503,0,,Mobile,607,Westgate Lodge,Westgate Lodge,37 Wilkie Street,"37, rue Wilkie",Belleville,Belleville,ON,K8P 4E4,44.1469127035893,-77.40657952674731,9.0,PointAddress,100.0,74811428.67350201,49826609.35212293
27529,35006,Bay of Quinte,504,0,,Mobile,607,Aldersgate Home,Aldersgate Home,7 Aldersgate Drive,7 Aldersgate Drive,Belleville,Belleville,ON,K8P 4P9,44.151891467644646,-77.41276723353276,9.0,StreetAddress,100.0,74838620.53892615,49851502.531737365
27530,35006,Bay of Quinte,504,0,,Mobile,607,Wellington Arms Senior Citizens Complex,Wellington Arms Senior Citizens Complex,25 Wellington Crescent,25 Wellington Crescent,Belleville,Belleville,ON,K8P 4S6,44.15840405857228,-77.39359743611895,8.0,PointAddress,100.0,74739387.33487183,49798096.99350352
27531,35006,Bay of Quinte,505,0,,Mobile,603,Carrington Retirement Residence,Carrington Retirement Residence,114 Whites Road,114 Whites Road,Trenton,Trenton,ON,K8V 5P5,44.12533165714836,-77.50989763987018,9.0,StreetAddress,100.0,75341370.52052118,50131488.0570571
27532,35006,Bay of Quinte,505,0,,Mobile,603,Crown Ridge Health Care,Crown Ridge Health Care,106 Crown Street,"106, rue Crown",Trenton,Trenton,ON,K8V 6R3,44.10582342772216,-77.56191778250358,9.0,PointAddress,100.0,75617344.37642805,50277378.632605344
27533,35006,Bay of Quinte,506,0,,Mobile,602,45 Creswell Retirement Apartments,45 Creswell Retirement Apartments,45 Creswell Drive,45 Creswell Drive,Trenton,Trenton,ON,K8V 6A6,44.09548586759202,-77.57835476074793,9.0,PointAddress,100.0,75707899.83241467,50319156.46345924
27534,35006,Bay of Quinte,506,0,,Mobile,602,Trenton Memorial Lodge,Trenton Memorial Lodge,80 Catherine Street,"80, rue Catherine",Trenton,Trenton,ON,K8V 6N8,44.101431262277124,-77.58853287304503,9.0,PointAddress,100.0,75755493.08802067,50358580.92147135
27535,35006,Bay of Quinte,507,0,,Mobile,612,H.J. McFarland Memorial Home,H.J. McFarland Memorial Home,603 Highway 49,603 Highway 49,Picton,Picton,ON,K0K 2T0,44.025548704301436,-77.13543029569855,9.0,StreetAddress,100.0,73578874.3995241,48860189.7589598
27536,35006,Bay of Quinte,507,0,,Mobile,612,Harmony Home Senior Apartments,Harmony Home Senior Apartments,42 Downes Avenue,"42, avenue Downes",Prince Edward,Prince Edward,ON,K0K 2T0,44.00808124380463,-77.15169437844712,9.0,StreetAddress,100.0,73668080.97517975,48890833.13687812
27537,35006,Bay of Quinte,507,0,,Mobile,612,Kentwood Park Nursing Home,Kentwood Park Nursing Home,2 Ontario Street,"2, rue Ontario",Prince Edward,Prince Edward,ON,K0K 2T0,44.00310127878341,-77.14863000145549,9.0,StreetAddress,100.0,73656822.58139712,48876282.564574145
27538,35006,Bay of Quinte,508,0,,Mobile,614,Hallowell House,Hallowell House,13628 Loyalist Parkway,13628 Loyalist Parkway,Picton,Picton,ON,K0K 2T0,43.9937956456541,-77.18137476715239,9.0,StreetAddress,100.0,73819553.30159292,48965642.61773308
27539,35006,Bay of Quinte,508,0,,Mobile,614,Manor of Loyalist Parkway,Manor of Loyalist Parkway,13468 Loyalist Parkway,13468 Loyalist Parkway,Prince Edward,Prince Edward,ON,K0K 2T0,43.99694330448207,-77.17056188476205,9.0,StreetAddress,100.0,73765679.84678002,48936166.00444533
27540,35006,Bay of Quinte,508,0,,Mobile,614,West Lake Terrace,West Lake Terrace,1673 County Road 12,1673 County Road 12,Prince Edward,Prince Edward,ON,K0K 2T0,43.92728511520484,-77.25815134551534,9.0,StreetAddress,100.0,74234460.98975599,49129079.62215233
27541,35006,Bay of Quinte,509,0,,Mobile,609,BelMarine Retirement Home,BelMarine Retirement Home,228 Dundas Street East,"228, rue Dundas Est",Belleville,Belleville,ON,K8N 5A9,44.163165224017284,-77.36750385388643,9.0,PointAddress,100.0,74607584.38015965,49721236.0401136
27542,35006,Bay of Quinte,509,0,,Mobile,609,Birchview Place Senior Citizens,Birchview Place Senior Citizens,5 Turnbull Street,"5, rue Turnbull",Belleville,Belleville,ON,K8N 3C9,44.1625580244387,-77.37924736144652,8.0,PointAddress,100.0,74665784.69364701,49757443.21137978
27543,35006,Bay of Quinte,509,0,,Mobile,609,Birchview Place Senior Citizens,Birchview Place Senior Citizens,7 Turnbull Street,"7, rue Turnbull",Belleville,Belleville,ON,K8N 3C9,44.16299804997393,-77.37947740140847,8.0,PointAddress,100.0,74666615.47340076,49758639.5540089
27544,35006,Bay of Quinte,510,0,,Mobile,607,Hastings Manor Home for the Aged,Hastings Manor Home for the Aged,476 Dundas Street West,"476, rue Dundas Ouest",Belleville,Belleville,ON,K8N 5B2,44.16105300000005,-77.38184149999996,9.0,PostalExt,97.66,74679596.40995638,49763974.051442444
27545,35006,Bay of Quinte,510,0,,Mobile,607,Maple Manor Residence,Maple Manor Residence,132 Avonlough Road,132 Avonlough Road,Belleville,Belleville,ON,K8N 4Z2,44.145770898147575,-77.42145929791126,9.0,PointAddress,100.0,74885890.02628574,49872348.28382784
27546,35006,Bay of Quinte,511,0,,Mobile,607,Bayview Retirement Residence,Bayview Retirement Residence,435 Dundas Street West,"435, rue Dundas Ouest",Belleville,Belleville,ON,K8P 1B6,44.14683016896573,-77.40912317912193,10.0,PointAddress,100.0,74824068.33734533,49834542.571553834
27547,35006,Bay of Quinte,511,0,,Mobile,607,Fairview Towers Seniors Residence,Fairview Towers Seniors  Residence,247 Bridge Street West,"247, rue Bridge Ouest",Belleville,Belleville,ON,K8P 4S1,44.15965066273333,-77.4027965965723,9.0,PointAddress,100.0,74783965.05365403,49828419.9866393
27548,35006,Bay of Quinte,511,0,,Mobile,607,Quinte Court Seniors Residence,Quinte Court Seniors Residence,245 Bridge Street West,"245, rue Bridge Ouest",Belleville,Belleville,ON,K8P 4S1,44.159892855906605,-77.40168179681473,9.0,PointAddress,100.0,74778289.17837587,49825167.07565099
27549,35006,Bay of Quinte,512,0,,Mobile,603,Seasons Dufferin Centre,Seasons Dufferin Centre,344 Dufferin Avenue,"344, avenue Dufferin",Trenton,Trenton,ON,K8V 5G9,44.101218762132895,-77.58434178965868,9.0,PointAddress,100.0,75734330.8297482,50344783.692505606
27550,35006,Bay of Quinte,512,0,,Mobile,603,Trent Valley Lodge Nursing Home,Centre d'accueil Trent Valley,195 Bay Street,"195, rue Bay",Trenton,Trenton,ON,K8V 1H9,44.10334856838269,-77.55770841465174,9.0,PointAddress,100.0,75597747.79582548,50261108.01348512
27746,35007,Beaches--East York,500,0,,Mobile,600,Canadian Macedonian Place,Canadian Macedonian Place,850 O'Connor Drive,850 O'Connor Drive,East York,East York,ON,M4B 3L6,43.706901215390296,-79.3117947591318,9.0,PointAddress,100.0,86163829.30084324,56289755.13892464
27747,35007,Beaches--East York,500,0,,Mobile,600,St. Clair O'Connor Community Inc,St. Clair O'Connor Communauté  Inc,2701 St. Clair Avenue East,"2701, avenue St. Clair Est",East York,East York,ON,M4B 3M3,43.70561283484345,-79.31187578919733,9.0,PointAddress,100.0,86165395.39572647,56288480.188373104
27748,35007,Beaches--East York,501,0,,Mobile,608,Main Street Terrace,Main Street Terrace,77 Main Street,"77, rue Main",Toronto,Toronto,ON,M4E 2V6,43.681504336949565,-79.29912552091893,9.0,PointAddress,100.0,86098085.75959675,56204009.87457719
27749,35007,Beaches--East York,501,0,,Mobile,608,True Davidson Acres,True Davidson Acres,200 Dawes Road,200 Dawes Road,East York,East York,ON,M4C 5M8,43.69583700000001,-79.29745852671772,9.0,PointAddress,100.0,86075518.41578196,56214938.23349113
27750,35007,Beaches--East York,502,0,,Mobile,609,Atrium @ Kew Beach,Atrium @ Kew Beach,500 Kingston Road,500 Kingston Road,Toronto,Toronto,ON,M4L 1V3,43.67766637471846,-79.30242060563201,9.0,PointAddress,100.0,86123403.32982457,56213171.79641075
27751,35007,Beaches--East York,502,0,,Mobile,609,Beach Arms Retirement Residence,Beach Arms Retirement Residence,505 Kingston Road,505 Kingston Road,Toronto,Toronto,ON,M4L 1V5,43.677555592532954,-79.30253788715463,9.0,PointAddress,100.0,86124284.36913437,56213530.439471245
27799,35008,Brampton Centre,36,0,A,Ordinary,604,Clark Boulevard Public School,École publique Clark Boulevard,201 Clark Boulevard,"201, boulevard Clark",Brampton,Brampton,ON,L6T 2C9,43.71504673241409,-79.71890719519342,8.0,PointAddress,100.0,89019506.86636361,58097527.04850566
27800,35008,Brampton Centre,36,0,B,Ordinary,604,Bramalea Retirement Residence,Bramalea Retirement  Residence,30 Peel Centre Drive,30 Peel Centre Drive,Brampton,Brampton,ON,L6T 4G3,43.71640910188109,-79.72463907677856,9.0,PointAddress,100.0,89060221.7804866,58125572.68359233
27830,35008,Brampton Centre,66,0,A,Ordinary,602,Birchbank Public School,Birchbank Public School,52 Birchbank Road,52 Birchbank Road,Brampton,Brampton,ON,L6T 1L7,43.70361890324483,-79.70701918371824,9.0,StreetAddress,100.0,88942226.46897805,58028264.18868022
27831,35008,Brampton Centre,66,0,B,Ordinary,602,Compass North,Compass North,68 Bramalea Road,68 Bramalea Road,Brampton,Brampton,ON,L6T 2W9,43.70807783011158,-79.69550909885133,9.0,PointAddress,100.0,88854898.53655432,57981518.52598499
28113,35009,Brampton East,500,0,,Mobile,606,Hawthorn Woods,Hawthorn Woods,9257 Goreway Drive,9257 Goreway Drive,Brampton,Brampton,ON,L6P 0N5,43.75702015935684,-79.68969176568227,8.0,PointAddress,100.0,88772732.14619693,58018555.194239296
28114,35009,Brampton East,500,0,,Mobile,606,Maple Grove Care Community,-,215 Sunny Meadow m Boulevard,"215, boulevard Sunny Meadow m",Brampton,Brampton,ON,L6R 3B5,43.757694645074345,-79.75524157115267,8.0,PointAddress,97.77,89250408.60521626,58320226.23718863
28301,35010,Brampton North,500,0,A,Mobile,601,Woodhall Park Retirement Village,Woodhall Park Retirement Village,10250 Kennedy Road North,10250 Kennedy Road North,Brampton,Brampton,ON,L6Z 4N7,43.72126985549648,-79.78403899409922,9.0,StreetAddress,100.0,89492318.99253546,58405838.517530866
28302,35010,Brampton North,500,0,A,Mobile,601,Woodhall Park Specialty Care,Woodhall Park Specialty Care,10260 Kennedy Road North,10260 Kennedy Road North,Brampton,Brampton,ON,L6Z 4N7,43.72059253479739,-79.78303747215615,9.0,PointAddress,100.0,89485483.78122726,58400307.92147409
28303,35010,Brampton North,500,0,B,Mobile,601,Tall Pines Long Term Care Centre,Tall Pines Long Term Care Centre,1001 Peter Robertson Boulevard,"1001, boulevard Peter Robertson",Brampton,Brampton,ON,L6R 2Y3,43.75079379848817,-79.74284591277677,8.0,PointAddress,100.0,89165191.1037587,58254064.78668724
28304,35010,Brampton North,500,0,B,Mobile,601,Village of Sandalwood Park,Village of Sandalwood Park,425 Great Lakes Drive,425 Great Lakes Drive,Brampton,Brampton,ON,L6R 2W8,43.740711940359866,-79.77278182630334,8.0,PointAddress,100.0,89393326.68928069,58379124.04509393
28501,35011,Brampton South,501,0,,Mobile,606,Extendicare Brampton,Extendicare Brampton,7891 McLaughlin Road South,7891 McLaughlin Road South,Brampton,Brampton,ON,L6Y 5H8,43.653051478399874,-79.73896326548439,9.0,StreetAddress,100.0,89216811.10074,58108681.73652946
28502,35011,Brampton South,501,0,,Mobile,606,Southbrook Retirement Community,Southbrook Retirement Community,400 Ray Lawson Boulevard,"400, boulevard Ray Lawson",Brampton,Brampton,ON,L6Y 4G4,43.653251414449265,-79.73209184361467,8.0,PointAddress,100.0,89166343.88136645,58077417.8241612
28503,35011,Brampton South,502,0,A,Mobile,607,Holland Christian Homes - Grace & Peace Tower,Holland Christian Homes - Grace & Peace Tower,45 Kingknoll Drive,45 Kingknoll Drive,Brampton,Brampton,ON,L6Y 5P2,43.65291954258769,-79.74176357227783,9.0,PointAddress,100.0,89237437.62971126,58121368.21816569
28504,35011,Brampton South,502,0,B,Mobile,607,Burton Manor,Burton Manor,5 Sterritt Drive,5 Sterritt Drive,Brampton,Brampton,ON,L6Y 5P3,43.66181744238001,-79.7737607902652,8.0,PointAddress,100.0,89465344.79501331,58280417.93525274
28576,35012,Brampton West,59,0,A,Ordinary,600,Royal Orchard Middle School,Royal Orchard Middle School,77 Royal Orchard Drive,77 Royal Orchard Drive,Brampton,Brampton,ON,L6X 4M4,43.694186947861695,-79.78731274834135,8.0,PointAddress,100.0,89538769.8790821,58385543.69557311
28577,35012,Brampton West,59,0,B,Mobile,600,Manor Bridge,Manor Bridge,160 Murray Street,"160, rue Murray",Brampton,Brampton,ON,L6X 3C8,43.69847763338892,-79.78064207894293,9.0,PointAddress,100.0,89485989.61192103,58360250.84737439
28682,35012,Brampton West,500,0,,Mobile,600,Nance Horwood Place,Nance Horwood Place,529 Main Street North,"529, rue Main Nord",Brampton,Brampton,ON,L6X 3C9,43.70090366636867,-79.78025879964201,9.0,PointAddress,100.0,89481167.65731212,58361652.24720241
28683,35012,Brampton West,500,0,,Mobile,600,Peel Manor,Manoir Peel,525 Main Street North,"525, rue Main Nord",Brampton,Brampton,ON,L6X 1N9,43.700933734422236,-79.78035977813738,9.0,StreetAddress,100.0,89481887.97881444,58362159.30081356
28930,35013,Brantford--Brant,500,0,,Mobile,614,Hardy Terrace Nursing Home,Hardy Terrace Nursing Home,612 Mount Pleasant Road,612 Mount Pleasant Road,Mount Pleasant,Mount Pleasant,ON,N3T 5L5,43.088682655174175,-80.31007047746775,7.0,PointAddress,98.0,94116306.88403422,60098678.13000519
28931,35013,Brantford--Brant,500,0,,Mobile,614,Iroquois Lodge,Iroquois Lodge,1755 Chiefswood Road,1755 Chiefswood Road,Ohsweken,Ohsweken,ON,N0A 1M0,43.072479125772645,-80.1156501355108,9.0,StreetAddress,100.0,92563340.3331843,59114239.03789077
28932,35013,Brantford--Brant,501,0,,Mobile,600,Park Lane Terrace Nursing Home,Park Lane Terrace Nursing Home,295 Grand River Street North,"295, rue Grand River Nord",Paris,Paris,ON,N3L 2N9,43.21140681196513,-80.38909652147791,9.0,StreetAddress,100.0,94665034.51403433,60671213.84272221
28933,35013,Brantford--Brant,501,0,,Mobile,600,Queensview Retirement Community,Queensview Retirement Community,70 King Edward Street,"70, rue King Edward",Paris,Paris,ON,N3L 0C1,43.1886800311038,-80.38598825148576,9.0,PointAddress,100.0,94658647.17849936,60623640.819452
28934,35013,Brantford--Brant,502,0,,Mobile,609,Amber Lea Place Retirement Home,Amber Lea Place Retirement Home,384 St. Paul Avenue,"384, avenue St. Paul",Brantford,Brantford,ON,N3R 4N4,43.15692862865708,-80.27398491136219,9.0,PointAddress,100.0,93763262.2189045,60011269.49550161
28935,35013,Brantford--Brant,502,0,,Mobile,609,Foxridge Care Community,Foxridge Care Community,389 West Street,"389, rue West",Brantford,Brantford,ON,N3R 3V9,43.15725203693306,-80.25672693384757,9.0,StreetAddress,100.0,93622618.2625699,59925263.37507186
28936,35013,Brantford--Brant,503,0,,Mobile,607,Brierwood Gardens Seniors' Community - Apartments,Brierwood Gardens Seniors' Community - Apartments,405 Park Road North,405 Park Road North,Brantford,Brantford,ON,N3R 7G3,43.17748001806206,-80.2482362792436,8.0,PointAddress,100.0,93536617.63594562,59910614.57721237
28937,35013,Brantford--Brant,503,0,,Mobile,607,"Brierwood Gardens Seniors' Community - LTC, Retirement","Brierwood Gardens Seniors' Community - LTC, Retirement",425 Park Road North,425 Park Road North,Brantford,Brantford,ON,N3R 7G5,43.17799401471143,-80.2484161089546,9.0,StreetAddress,100.0,93537640.19073918,59912218.66210444
28938,35013,Brantford--Brant,504,0,,Mobile,600,Charlotte Villa,Charlotte Villa,120 Darling Street,"120, rue Darling",Brantford,Brantford,ON,N3T 5W6,43.140537427722165,-80.26121125298631,9.0,PointAddress,100.0,93673198.30687496,59924714.38836119
28939,35013,Brantford--Brant,504,0,,Mobile,600,Penmarvian Retirement Lodge,Penmarvian Retirement Lodge,185 Grand River Street North,"185, rue Grand River Nord",Paris,Paris,ON,N3L 2N2,43.19884890036926,-80.38485378302319,8.0,PointAddress,100.0,94640483.34263524,60631957.80440732
28940,35013,Brantford--Brant,504,0,,Mobile,600,Riverview Terrace,Riverview Terrace,104 Brant Avenue,"104, avenue Brant",Brantford,Brantford,ON,N3T 3H3,43.142380975272836,-80.27237521432242,9.0,PointAddress,100.0,93762479.56704047,59983168.31476361
28941,35013,Brantford--Brant,505,0,,Mobile,613,John Noble Home,John Noble Home,97 Mount Pleasant Street,"97, rue Mount Pleasant",Brantford,Brantford,ON,N3T 1T5,43.127706156468385,-80.2754153867535,9.0,StreetAddress,100.0,93799688.5484022,59978208.14500028
28942,35013,Brantford--Brant,505,0,,Mobile,613,John Noble Home - Bell Lane Terrace,John Noble Home - Bell Lane Terrace,6 Bell Lane,6 Bell Lane,Brantford,Brantford,ON,N3T 0C3,43.12723673384217,-80.27586144866989,9.0,StreetAddress,100.0,93803722.7250592,59979798.891376525
28943,35013,Brantford--Brant,505,0,,Mobile,613,Participation House,Participation House,10 Bell Lane,10 Bell Lane,Brantford,Brantford,ON,N3T 5W5,43.12706428517228,-80.27633568251206,9.0,StreetAddress,100.0,93807735.29372047,59981940.12738383
28944,35013,Brantford--Brant,506,0,,Mobile,610,Park View Retirement Home,Park View Retirement Home,254 Dalhousie Street,"254, rue Dalhousie",Brantford,Brantford,ON,N3S 3V2,43.139986478792615,-80.25496376019966,9.0,PointAddress,100.0,93622913.3656587,59892718.83742042
28945,35013,Brantford--Brant,506,0,,Mobile,610,Seasons Bell Lane Retirement Village,Seasons Bell Lane Retirement Village,55 Diana Avenue,"55, avenue Diana",Brantford,Brantford,ON,N3T 0C2,43.12441749083046,-80.2864563363901,9.0,StreetAddress,100.0,93892579.5225522,60029108.55866411
29181,35014,Bruce--Grey--Owen Sound,500,0,,Mobile,606,Georgian Heights,Georgian Heights,1115 10th Street East,1115 10th Street East,Owen Sound,Owen Sound,ON,N4K 6B1,44.57007556780578,-80.92283481819501,9.0,PointAddress,100.0,98108748.04522151,65543566.81183645
29182,35014,Bruce--Grey--Owen Sound,500,0,,Mobile,606,Kelso Pines,Kelso Pines,1685 3rd Avenue West,1685 3rd Avenue West,Owen Sound,Owen Sound,ON,N4K 1O1,44.57732175852623,-80.94944596150995,8.0,PointAddress,99.25,98346325.67131217,65712160.12826079
29183,35014,Bruce--Grey--Owen Sound,500,0,,Mobile,606,Kent Residential Home,Kent Residential Home,1065 9th Avenue West,1065 9th Avenue West,Owen Sound,Owen Sound,ON,N4K 6M9,44.56732111268687,-80.96286322806061,9.0,StreetAddress,100.0,98479431.5035481,65777712.07586265
29184,35014,Bruce--Grey--Owen Sound,501,0,,Mobile,607,Inglewood Villa,Inglewood Villa,1731 8th Avenue East,1731 8th Avenue East,Owen Sound,Owen Sound,ON,N4K 3C2,44.57662855952457,-80.9276468507707,8.0,PointAddress,100.0,98146706.95536983,65581562.7826401
29185,35014,Bruce--Grey--Owen Sound,501,0,,Mobile,607,Lee Manor Home for the Aged,Lee Manor Home for the Aged,875 6th Street East,875 6th Street East,Owen Sound,Owen Sound,ON,N4K 5W5,44.561648964259945,-80.92803720959101,9.0,StreetAddress,100.0,98164295.35461843,65562221.77893036
29186,35014,Bruce--Grey--Owen Sound,502,0,,Mobile,607,Central Place Retirement Home,Central Place Retirement Home,855 3rd Avenue East,855 3rd Avenue East,Owen Sound,Owen Sound,ON,N4K 2K6,44.593814201788156,-80.91943595598975,9.0,StreetAddress,100.0,98055443.82806785,65557723.41666172
29187,35014,Bruce--Grey--Owen Sound,502,0,,Mobile,607,Hannah Walker Place,Hannah Walker Place,846 2nd Avenue West,846 2nd Avenue West,Owen Sound,Owen Sound,ON,N4K 2H2,44.564459909515854,-80.94554687431445,9.0,PointAddress,100.0,98322488.88974336,65670309.73637516
29188,35014,Bruce--Grey--Owen Sound,502,0,,Mobile,607,John Joseph Place,John Joseph Place,854 2nd Avenue West,854 2nd Avenue West,Owen Sound,Owen Sound,ON,N4K 2H3,44.564612909515866,-80.94558843259826,9.0,PointAddress,100.0,98322727.96095784,65670778.680133015
29189,35014,Bruce--Grey--Owen Sound,503,0,,Mobile,608,Kelso Villa Retirement Home,Kelso Villa Retirement Home,1475 2nd Avenue West,1475 2nd Avenue West,Owen Sound,Owen Sound,ON,N4K 6Z2,44.57337900000006,-80.94738049999997,9.0,PostalExt,99.0,98331006.46518543,65694144.80346045
29190,35014,Bruce--Grey--Owen Sound,503,0,,Mobile,608,Second Avenue Lodge,Second Avenue Lodge,671 2nd Avenue East,671 2nd Avenue East,Owen Sound,Owen Sound,ON,N4K 2G7,44.561767046050136,-80.94184311457705,8.0,PointAddress,100.0,98290943.25776015,65644375.37132132
29191,35014,Bruce--Grey--Owen Sound,504,0,,Mobile,616,Grey Gables,Grey Gables,206 Toronto Street,"206, rue Toronto",Markdale,Markdale,ON,N0C 1H0,44.3151388905415,-80.64241146597944,9.0,StreetAddress,99.62,95844951.99390246,63570633.07815418
29192,35014,Bruce--Grey--Owen Sound,504,0,,Mobile,616,Participation Lodge Grey Bruce,Participation Lodge Grey Bruce,684136 30,684136 30,Holland Centre,Holland Centre,ON,N0H 1R0,44.41296300000006,-80.78692849999996,9.0,PostalExt,89.49,97026240.46610308,64525496.73260604
29193,35014,Bruce--Grey--Owen Sound,505,0,,Mobile,613,Country Lane,Country Lane,317079 Highway 6,317079 Highway 6,Chatsworth,Chatsworth,ON,N0H 1G0,44.46483069810017,-80.90323047179879,9.0,StreetAddress,100.0,98027656.45949936,65275799.524303615
29194,35014,Bruce--Grey--Owen Sound,505,0,,Mobile,613,Elgin Abbey Nursing Home,Elgin Abbey Nursing Home,380 1st Avenue North,380 1st Avenue North,Chesley,Chesley,ON,N0G 1L0,44.3092725483763,-81.09852979585575,9.0,StreetAddress,100.0,99995126.49427475,66219847.484177016
29195,35014,Bruce--Grey--Owen Sound,505,0,,Mobile,613,Extendicare Parkview Manor,Extendicare Parkview Manor,98 3rd Street South-East,98 3rd Street South-East,Chesley,Chesley,ON,N0G 1L0,44.298038892206854,-81.09230443562043,9.0,StreetAddress,100.0,99946460.73972884,66165285.236701936
29196,35014,Bruce--Grey--Owen Sound,506,0,,Mobile,615,Hanover Care Centre and McVean Lodge,Hanover Care Centre and McVean Lodge,700 19th Avenue,700 19th Avenue,Hanover,Hanover,ON,N4N 3S6,44.159900082145604,-81.01693504085598,9.0,PointAddress,100.0,99364164.25636129,65507046.49744186
29197,35014,Bruce--Grey--Owen Sound,506,0,,Mobile,615,Rockwood Terrace,Rockwood Terrace,575 Sadler Street,"575, rue Sadler",Durham,Durham,ON,N0G 1R0,44.17513522663748,-80.8100463712698,9.0,StreetAddress,97.11,97451259.06920744,64317671.6916703
29198,35014,Bruce--Grey--Owen Sound,507,0,,Mobile,610,Meaford Nursing Home,Meaford Nursing Home,135 William Street,"135, rue William",Meaford,Meaford,ON,N4L 1T4,44.61199872880739,-80.60066430653825,9.0,PointAddress,100.0,95216480.36534221,63755676.33807421
29199,35014,Bruce--Grey--Owen Sound,507,0,,Mobile,610,Meaford Place,Meaford Place,124 Centre Street,"124, rue Centre",Meaford,Meaford,ON,N4L 1E8,44.596890891194015,-80.59733486046464,9.0,PointAddress,100.0,95201655.54018225,63716062.77043192
29200,35014,Bruce--Grey--Owen Sound,507,0,,Mobile,610,Versa Care Mapleview,Versa Care Mapleview,1029 4th Avenue West,1029 4th Avenue West,Owen Sound,Owen Sound,ON,N4K 4W1,44.56738136747644,-80.9495336983961,8.0,PointAddress,100.0,98356451.35129203,65698281.40191345
29201,35014,Bruce--Grey--Owen Sound,508,0,,Mobile,602,Gateway Haven,Gateway Haven,671 Frank Street,"671, rue Frank",Wiarton,Wiarton,ON,N0H 2T0,44.74055852394869,-81.128418585204,9.0,PointAddress,98.0,99869666.2101047,67039555.69353757
29202,35014,Bruce--Grey--Owen Sound,508,0,,Mobile,602,Golden Dawn Nursing Home & Apartments,Golden Dawn Nursing Home & Apartments,80 Main Street,"80, rue Main",Lion's Head,Lion's Head,ON,N0H 1W0,44.98730602872631,-81.25457376204581,9.0,StreetAddress,100.0,100850334.38754869,68201732.30363588
29350,35015,Burlington,126,0,A,Ordinary,604,Port Nelson United Church,Port Nelson United Church,3132 South Drive,3132 South Drive,Burlington,Burlington,ON,L7M 1H7,43.36205100000005,-79.80682849999997,9.0,PostalExt,93.78,89955662.85367002,58039556.239813305
29351,35015,Burlington,126,0,B,Mobile,604,Bonnie Place 2,Bonnie Place 2,510 Claridge Road,510 Claridge Road,Burlington,Burlington,ON,L7N 0A2,43.34240525884429,-79.78511760234245,9.0,PointAddress,100.0,89810487.68602878,57913744.20299763
29353,35015,Burlington,127,0,A,Ordinary,602,Port Nelson United Church,Port Nelson United Church,3132 South Drive,3132 South Drive,Burlington,Burlington,ON,L7M 1H7,43.36205100000005,-79.80682849999997,9.0,PostalExt,93.78,89955662.85367002,58039556.239813305
29354,35015,Burlington,127,0,B,Mobile,602,Maranatha Home,Maranatha Home,3260 New Street,"3260, rue New",Burlington,Burlington,ON,L7N 3L4,43.34537008739706,-79.77766713122547,8.0,PointAddress,100.0,89752897.8156193,57883435.312227786
29389,35015,Burlington,161,0,A,Ordinary,611,Lions Club Hall,Lions Club Hall,471 Pearl Street,"471, rue Pearl",Burlington,Burlington,ON,L7R 4M4,43.32809154902165,-79.79678157461511,9.0,PointAddress,100.0,89908693.80948499,57948549.881418414
29390,35015,Burlington,161,0,B,Mobile,611,Pearl and Pine,Pearl and Pine,390 Pearl Street,"390, rue Pearl",Burlington,Burlington,ON,L7R 2M9,43.326372601949004,-79.79447107601904,9.0,StreetAddress,100.0,89892936.79638481,57935656.90324915
29416,35015,Burlington,186,0,A,Ordinary,609,Aldershot Arena,Aldershot Arena,494 Townsend Avenue,"494, avenue Townsend",Burlington,Burlington,ON,L7T 2B3,43.31721359308119,-79.83353155669728,8.0,PointAddress,100.0,90191499.86024743,58103898.195201255
29417,35015,Burlington,186,0,B,Mobile,609,Aldershot Village,Aldershot Village,540 Plains Road East,540 Plains Road East,Burlington,Burlington,ON,L7T 2E3,43.3200438667553,-79.83499031401142,9.0,PointAddress,100.0,90200097.1362748,58114394.672422595
29475,35015,Burlington,500,0,,Mobile,600,Appleby Place Retirement Residence,Appleby Place Retirement Residence,500 Appleby Line,500 Appleby Line,Burlington,Burlington,ON,L7L 5Z6,43.36841708546381,-79.75522754679993,9.0,PointAddress,100.0,89568445.30373928,57810908.0740633
29476,35015,Burlington,500,0,,Mobile,600,Burloak Long Term Care,Burloak Long Term Care,5959 New Street,"5959, rue New",Burlington,Burlington,ON,L7L 6W5,43.38114673775153,-79.73838921515915,9.0,PointAddress,100.0,89434235.44443427,57750708.44608756
29477,35015,Burlington,501,0,,Mobile,601,Lakeshore Place,Lakeshore Place,5314 Lakeshore Road,5314 Lakeshore Road,Burlington,Burlington,ON,L7L 6L8,43.36677538825115,-79.73287223255831,9.0,PointAddress,100.0,89405404.64372502,57706771.69798242
29478,35015,Burlington,501,0,,Mobile,601,Sunrise Senior Living Residence,Sunrise Senior Living Residence,5401 Lakeshore Road,5401 Lakeshore Road,Burlington,Burlington,ON,L7L 6S5,43.368395308673044,-79.72929723082662,10.0,PointAddress,100.0,89377866.64362514,57692620.00490769
29479,35015,Burlington,502,0,A,Mobile,603,Bonnie Place,Bonnie Place,500 Claridge Road,500 Claridge Road,Burlington,Burlington,ON,L7N 2S3,43.341785339607846,-79.78407420010177,9.0,StreetAddress,100.0,89803261.14454031,57908136.503849246
29480,35015,Burlington,502,0,B,Mobile,603,Longmoor Seniors Residence,Longmoor Seniors Residence,4100 Longmoor Drive,4100 Longmoor Drive,Burlington,Burlington,ON,L7L 5H1,43.3569183408447,-79.77014438631792,9.0,PointAddress,100.0,89687866.12216999,57864104.095706284
29481,35015,Burlington,503,0,,Mobile,606,Bethany Residence,Centre d'accueil Bethany,2387 Industrial Street,"2387, rue Industrial",Burlington,Burlington,ON,L7P 3A1,43.35139955900495,-79.81081107928873,9.0,PointAddress,100.0,89994003.78213803,58043910.58188364
29482,35015,Burlington,503,0,,Mobile,606,Palmer Place,Place Palmer,3097 Palmer Drive,3097 Palmer Drive,Burlington,Burlington,ON,L7M 4G8,43.362936303912534,-79.81629626530597,10.0,PointAddress,100.0,90025434.35832976,58084453.511632875
29483,35015,Burlington,504,0,,Mobile,610,Christopher Terrace Retirement Home,Centre d'accueil Christopher Terrace,3131 New Street,"3131, rue New",Burlington,Burlington,ON,L7N 3P8,43.34219672996124,-79.78122930171948,9.0,PointAddress,100.0,89781852.72358818,57895613.921595745
29484,35015,Burlington,504,0,,Mobile,610,Woodward Park Seniors,Woodward Park Seniors,2424 Woodward Avenue,"2424, avenue Woodward",Burlington,Burlington,ON,L7R 4E3,43.34157798664115,-79.79221258751262,8.0,PointAddress,100.0,89863775.99840698,57945271.619738065
29485,35015,Burlington,505,0,,Mobile,611,Martha's Landing,Martha's Landing,2109 Lakeshore Road,2109 Lakeshore Road,Burlington,Burlington,ON,L7R 4Z4,43.326735472964224,-79.79219817542834,9.0,PointAddress,100.0,89875768.79940626,57925680.96862516
29486,35015,Burlington,505,0,,Mobile,611,Wellington Terrace,Terrasse Wellington,410 John Street,"410, rue John",Burlington,Burlington,ON,L7R 4P5,43.32550756812291,-79.7964178183679,9.0,PointAddress,100.0,89908098.85387605,57943475.267007954
29487,35015,Burlington,506,0,,Mobile,612,Maple Villa Nursing Home,Centre d'accueil Maple Villa,441 Maple Avenue,"441, avenue Maple",Burlington,Burlington,ON,L7S 1L8,43.31977326536422,-79.80286822381574,9.0,PointAddress,100.0,89960715.88588353,57965624.38154542
29488,35015,Burlington,506,0,,Mobile,612,Wellington Park Care Centre,Wellington Pare Care Centre,802 Hager Avenue,"802, avenue Hager",Burlington,Burlington,ON,L7S 1X2,43.33106298476521,-79.81156821680392,9.0,PointAddress,100.0,90016251.55250876,58020610.89791293
29489,35015,Burlington,507,0,,Mobile,613,Brant Centre,Centre Brant,1230 North Shore Boulevard East,"1230, boulevard North Shore Est",Burlington,Burlington,ON,L7S 1C5,43.31765106166398,-79.80372461650418,9.0,StreetAddress,100.0,89968816.39224051,57966774.756544344
29490,35015,Burlington,507,0,,Mobile,613,LaSalle Park Retirement Community,LaSalle Park Retirement Community,18 Plains Road West,18 Plains Road West,Burlington,Burlington,ON,L7T 0B3,43.30618191782576,-79.8533526974438,9.0,PointAddress,100.0,90349065.70793964,58181296.781628385
29491,35015,Burlington,508,0,,Mobile,614,Hampton Terrace,Hampton Terrace,75 Plains Road West,75 Plains Road West,Burlington,Burlington,ON,L7T 1E8,43.305012122713116,-79.8549881865655,9.0,PointAddress,100.0,90362305.32694013,58187352.533801936
29492,35015,Burlington,508,0,,Mobile,614,Park Avenue Manor,Centre d'accueil Park Avenue,924 Park Avenue West,"924, avenue Park Ouest",Burlington,Burlington,ON,L7T 1N7,43.304636819580004,-79.8514875399906,9.0,PointAddress,100.0,90336329.61229485,58170584.47279936
29493,35015,Burlington,509,0,,Mobile,614,Burlington Gardens,Burlington Gardens,300 Plains Road West,300 Plains Road West,Burlington,Burlington,ON,L7T 0A2,43.2990081542792,-79.86277067563083,8.0,PointAddress,100.0,90425719.63587679,58215614.98943804
29494,35015,Burlington,509,0,,Mobile,614,Cama Woodlands Manor & Nursing Home,Centre d'accueil Cama Woodlands,159 Panin Road,159 Panin Road,Burlington,Burlington,ON,L7P 5A6,43.30874934843249,-79.86550801514693,8.0,PointAddress,100.0,90438327.89961454,58241264.22793259
29495,35015,Burlington,510,0,,Mobile,604,Billings Court Manor,Billings Court Manor,3700 Billings Court,3700 Billings Court,Burlington,Burlington,ON,L7N 3N6,43.36459172375843,-79.78778715234597,9.0,PointAddress,100.0,89812187.55223602,57955178.98351749
29496,35015,Burlington,510,0,,Mobile,604,School Sisters of Notre Dame,School Sisters of Notre Damne,1921 Snake Road,1921 Snake Road,Burlington,Burlington,ON,L7P 4Y2,43.3196981163938,-79.89269522900989,8.0,PointAddress,100.0,90634432.40783238,58382795.000183806
29522,35016,Cambridge,10,0,A,Ordinary,600,Fairview Mennonite Home,Centre d'accueil Fairview Mennonite,515 Langs Drive,515 Langs Drive,Cambridge,Cambridge,ON,N3H 5E4,43.3983332357027,-80.34319574551314,8.0,PointAddress,100.0,94124340.04840447,60695002.10565641
29523,35016,Cambridge,10,0,B,Mobile,600,Golden Years Nursing Home,Centre d'accueil Golden Years,704 Eagle Street North,"704, rue Eagle Nord",Cambridge,Cambridge,ON,N3H 4T3,43.40365926787437,-80.35423295741232,10.0,PointAddress,100.0,94210796.43489416,60758915.36700582
29535,35016,Cambridge,18,0,B,Ordinary,603,15 Lena Cr,15 Lena Cr,15 Lena Crescent,15 Lena Crescent,Cambridge,Cambridge,ON,N1R 0A6,43.391681515436325,-80.31287088634657,9.0,PointAddress,100.0,93880929.14368007,60531107.9204873
29536,35016,Cambridge,18,0,C,Ordinary,603,245 Lena Cr,245 Lena Cr,245 Lena Crescent,245 Lena Crescent,Cambridge,Cambridge,ON,N1R 0A2,43.3927640554852,-80.31414954313594,9.0,PointAddress,100.0,93890476.77206914,60539104.75928707
29543,35016,Cambridge,25,0,A,Ordinary,602,Ryerson Public School,École publique Ryerson,749 Grand Valley Drive,749 Grand Valley Drive,Cambridge,Cambridge,ON,N3H 2S3,43.39009721795778,-80.33510369695286,8.0,PointAddress,100.0,94064787.79191284,60642247.719872564
29544,35016,Cambridge,25,0,B,Mobile,602,Vila Nova,Vila Nova,611 Dunbar Road,611 Dunbar Road,Cambridge,Cambridge,ON,N3H 2T4,43.38770426008409,-80.33739686539897,9.0,PointAddress,100.0,94085709.98570888,60650658.09040757
29546,35016,Cambridge,26,0,A,Ordinary,602,Heritage Meadows Gracious Retirement Living,Heritage Meadows Gracious Retirement Living,208 Hespeler Road,208 Hespeler Road,Cambridge,Cambridge,ON,N1R 0A5,43.38504082846679,-80.32082664022693,9.0,PointAddress,100.0,93951831.52016686,60562443.166332595
29547,35016,Cambridge,26,0,B,Ordinary,602,Black Forest Condominium,Black Forest Condominium,190 Hespeler Road,190 Hespeler Road,Cambridge,Cambridge,ON,N1R 8B8,43.383362878152255,-80.32037720806136,9.0,PointAddress,100.0,93949581.6241635,60557839.31871426
29548,35016,Cambridge,26,0,C,Ordinary,602,Heritage Meadows Gracious Retirement Living,Heritage Meadows Gracious Retirement Living,208 Hespeler Road,208 Hespeler Road,Cambridge,Cambridge,ON,N1R 0A5,43.38504082846679,-80.32082664022693,9.0,PointAddress,100.0,93951831.52016686,60562443.166332595
29552,35016,Cambridge,29,0,A,Ordinary,602,Scouts Canada,Scouts Canada,1580 Queenston Road,1580 Queenston Road,Cambridge,Cambridge,ON,N3H 3L9,43.3884411942698,-80.34645298141834,9.0,PointAddress,100.0,94159679.80618733,60697997.29527458
29553,35016,Cambridge,29,0,B,Mobile,602,Riverbend Place,Riverbend Place,650 Coronation Boulevard,"650, boulevard Coronation",Cambridge,Cambridge,ON,N1R 7S6,43.37737775489089,-80.3255864792253,9.0,PointAddress,100.0,93997465.30388024,60576120.71647905
29737,35016,Cambridge,500,0,,Mobile,605,Marian Residence,Marian Residence,640 Hillview Road,640 Hillview Road,Cambridge,Cambridge,ON,N3H 5H3,43.39286347936954,-80.376761414796,8.0,PointAddress,100.0,94406512.95565069,60859755.1924752
29738,35016,Cambridge,500,0,,Mobile,605,Marsdale Manor Retirement Residence,Marsdale Manor Retirement Residence,25 Linnwood Avenue,"25, avenue Linnwood",Cambridge,Cambridge,ON,N1R 1V2,43.362584802094865,-80.2963351470945,9.0,PointAddress,100.0,93770568.09988905,60407085.19205325
29739,35016,Cambridge,500,0,,Mobile,605,Queen's Square Terrace,Queen's Square Terrace,10 Melville Street North,"10, rue Melville Nord",Cambridge,Cambridge,ON,N1S 1H5,43.35940713044607,-80.31696625188978,9.0,PointAddress,100.0,93942113.27275196,60507432.13830074
29740,35016,Cambridge,501,0,,Mobile,611,Hilltop Manor Nursing Home,Hilltop Manor Nursing Home,42 Elliott Street,"42, rue Elliott",Cambridge,Cambridge,ON,N1R 2J2,43.35277949321932,-80.310121438802,10.0,PointAddress,100.0,93891691.10744147,60463504.52452129
29741,35016,Cambridge,501,0,,Mobile,611,St. Andrews Terrace Long Term Care Community,St. Andrews Terrace Long Term Care Community,255 St. Andrews Street,"255, rue St. Andrews",Cambridge,Cambridge,ON,N1S 1P1,43.34589162557,-80.3292671870278,9.0,PointAddress,100.0,94054676.69885077,60551405.48763273
29742,35016,Cambridge,501,0,,Mobile,611,Stirling Heights Long Term Care Centre,Stirling Heights Long Term Care Centre,200 Stirling MacGregor Drive,200 Stirling MacGregor Drive,Cambridge,Cambridge,ON,N1S 5B7,43.33859163535084,-80.33314167476452,8.0,PointAddress,100.0,94092792.86418927,60561073.11191941
29987,35017,Chatham-Kent--Leamington,500,0,,Mobile,623,Blenheim Community Village,Blenheim Community Village,10 Mary Avenue,"10, avenue Mary",Chatham-Kent,Chatham-Kent,ON,N0P 1A0,42.339413883780786,-81.98759244484629,9.0,StreetAddress,100.0,111353139.13116182,68994850.43444222
29988,35017,Chatham-Kent--Leamington,500,0,,Mobile,623,Serenity Retirement Home,Serenity Retirement Home,84 Marlborough Street North,"84, rue Marlborough Nord",Chatham-Kent,Chatham-Kent,ON,N0P 1A0,42.33346148845882,-82.00305930391252,9.0,PointAddress,100.0,111542791.9658215,69094930.97833052
29989,35017,Chatham-Kent--Leamington,500,0,,Mobile,623,The Village Retirement Residence,The Village Retirement Residence,9 Myrtle Street,"9, rue Myrtle",Chatham-Kent,Chatham-Kent,ON,N0P 2C0,42.43528114902774,-81.88012501552323,9.0,PointAddress,100.0,110000904.41682014,68398467.98746765
29990,35017,Chatham-Kent--Leamington,501,0,,Mobile,614,Chatham-Kent Health Alliance Continuing Care,Chatham-Kent Health Alliance Continuing Care,80 Grand Avenue West,"80, avenue Grand Ouest",Chatham-Kent,Chatham-Kent,ON,N7L 1B7,42.405873363264185,-82.19401407363415,8.0,PointAddress,100.0,113795057.10334948,70608574.8436011
29991,35017,Chatham-Kent--Leamington,501,0,,Mobile,614,Meadow Park Nursing Home,Meadow Park Nursing Home,110 Sandys Street,"110, rue Sandys",Chatham-Kent,Chatham-Kent,ON,N7L 4X3,42.40648780907706,-82.19942987269926,9.0,PointAddress,100.0,113861921.45464344,70650087.88754888
29992,35017,Chatham-Kent--Leamington,502,0,,Mobile,617,Residence on the Thames,Residence on the Thames,850 Grand Avenue West,"850, avenue Grand Ouest",Chatham-Kent,Chatham-Kent,ON,N7L 5H5,42.394093535634134,-82.2157190836748,9.0,PointAddress,100.0,114078045.72237338,70751123.51273984
29993,35017,Chatham-Kent--Leamington,502,0,,Mobile,617,St. Andrews Residence,Résidence St. Andrews,99 Park Street,"99, rue Park",Chatham-Kent,Chatham-Kent,ON,N7M 3R5,42.40236810355454,-82.17924800181767,9.0,PointAddress,100.0,113615052.400143,70492576.7352871
29994,35017,Chatham-Kent--Leamington,503,0,,Mobile,612,Eden Villa Retirement and Assisted Living,Eden Villa Retirement and Assisted Living,190 Stanley Avenue,"190, avenue Stanley",Chatham,Chatham,ON,N7M 3J9,42.41176657060441,-82.17718622211365,8.0,PointAddress,100.0,113579958.18504049,70493106.48547044
29995,35017,Chatham-Kent--Leamington,503,0,,Mobile,612,Maple City Retirement Residence,Maple City Retirement Residence,97 McFarlane Avenue,"97, avenue McFarlane",Chatham-Kent,Chatham-Kent,ON,N7L 4V6,42.41506257787509,-82.20618610064034,9.0,PointAddress,100.0,113937525.22572252,70715178.45562424
29996,35017,Chatham-Kent--Leamington,504,0,,Mobile,607,Chez Nous Lodge Retirement Home,Chez Nous Lodge Retirement Home,6815 Tecumseh Road,6815 Tecumseh Road,Lakeshore,Lakeshore,ON,N0R 1N0,42.304801528420754,-82.54980283389115,9.0,PointAddress,100.0,118532980.83362876,73207470.2762184
29997,35017,Chatham-Kent--Leamington,504,0,,Mobile,607,Hudson Manor,Hudson Manor,36 Lawson Street,"36, rue Lawson",Chatham-Kent,Chatham-Kent,ON,N0P 2L0,42.260229825725496,-82.42327580420097,9.0,PointAddress,100.0,116883456.36633489,72116589.8136471
29998,35017,Chatham-Kent--Leamington,504,0,,Mobile,607,Tilbury Manor Nursing Home,Tilbury Manor Nursing Home,16 Fort Street,"16, rue Fort",Chatham-Kent,Chatham-Kent,ON,N0P 2L0,42.25901950288552,-82.43039763918864,9.0,PointAddress,100.0,116978777.15153341,72170599.72948675
29999,35017,Chatham-Kent--Leamington,505,0,,Mobile,606,Erie Glen Manor,Manoir Erie Glen,119 Robson Road,119 Robson Road,Leamington,Leamington,ON,N8H 3V4,42.02581403918356,-82.59274171857079,9.0,StreetAddress,100.0,119415845.13241415,73062884.93338093
30000,35017,Chatham-Kent--Leamington,505,0,,Mobile,606,The Meadows of Wheatley,The Meadows of Wheatley,21205 Pier Road,21205 Pier Road,Wheatley,Wheatley,ON,N0P 2P0,42.088543000259804,-82.46008878867774,9.0,PointAddress,100.0,117550107.85420835,72107431.07574919
30001,35017,Chatham-Kent--Leamington,506,0,,Mobile,604,Leamington Lodge,Pavillon Leamington,24 Russell Street,"24, rue Russell",Leamington,Leamington,ON,N8H 1T8,42.05132648124546,-82.60199994754457,9.0,PointAddress,100.0,119516901.30725357,73184045.03303964
30002,35017,Chatham-Kent--Leamington,506,0,,Mobile,604,Leamington Mennonite Long Term Care Home,Leamington Mennonite Long Term Care Home,35 Pickwick Drive,35 Pickwick Drive,Leamington,Leamington,ON,N8H 4T5,42.044529765450186,-82.58979760188618,9.0,StreetAddress,100.0,119355510.83611281,73072147.14881875
30003,35017,Chatham-Kent--Leamington,506,0,,Mobile,604,Leamington Mennonite Retirement Residence,Leamington Mennonite Retirement Residence,22 Garrison Avenue,"22, avenue Garrison",Leamington,Leamington,ON,N8H 2P2,42.04341893727281,-82.59119207403819,8.0,PointAddress,100.0,119375917.12815432,73081558.62524225
30004,35017,Chatham-Kent--Leamington,507,0,,Mobile,603,Chartwell Leamington Retirement Residence,Chartwell Leamington Retirement Residence,1 Henry Avenue,"1, avenue Henry",Leamington,Leamington,ON,N8H 5P1,42.0392293610232,-82.60371671933427,9.0,StreetAddress,100.0,119553419.58777618,73176554.89478864
30005,35017,Chatham-Kent--Leamington,507,0,,Mobile,603,New Beginnings Rest Home,New Beginnings Rest Home,106 Talbot Street West,"106, rue Talbot Ouest",Leamington,Leamington,ON,N8H 1M9,42.05171889976369,-82.60534488842404,9.0,PointAddress,100.0,119562782.5388729,73212158.35123652
30006,35017,Chatham-Kent--Leamington,508,0,,Mobile,605,Franklin Gardens Long Term Care,Maison de repos Leamington,24 Franklin Road,24 Franklin Road,Leamington,Leamington,ON,N8H 4B7,42.03141960046363,-82.59920823134452,9.0,StreetAddress,100.0,119499281.11996476,73125727.02887134
30007,35017,Chatham-Kent--Leamington,508,0,,Mobile,605,Seniors Alternative Care,Seniors Alternative Care,166 Talbot Street East,"166, rue Talbot Est",Leamington,Leamington,ON,N8H 1M2,42.0552249802645,-82.5908934143633,9.0,PointAddress,100.0,119359359.43064778,73100124.19801348
30205,35018,Davenport,164,0,B,Ordinary,610,Alexander Muir Gladstone Public School,Alexander Muir Gladstone Public School,108 Gladstone Avenue,"108, avenue Gladstone",Toronto,Toronto,ON,M6J 3L2,43.646059634745264,-79.42854537457424,9.0,PointAddress,100.0,87011783.4006241,56714449.506291054
30206,35018,Davenport,164,0,C,Ordinary,610,Condominium - TSCC 2448,Condominium - TSCC 2448,36 Lisgar Street,"36, rue Lisgar",Toronto,Toronto,ON,M6J 0C7,43.641774880373966,-79.42309485333818,9.0,PointAddress,100.0,86977473.54236062,56685376.04843707
30392,35019,Don Valley East,500,0,,Mobile,601,Greenview Lodge,Pavillon Greenview,880 Lawrence Avenue East,"880, avenue Lawrence Est",Toronto,Toronto,ON,M3C 1P6,43.73609116905171,-79.34860650611684,9.0,PointAddress,100.0,86390995.65400536,56483708.61080896
30393,35019,Don Valley East,500,0,,Mobile,601,Rayoak Place,Place Rayoak,1340 York Mills Road,1340 York Mills Road,Toronto,Toronto,ON,M3A 3R1,43.76249911523996,-79.31985824704236,8.0,PointAddress,100.0,86174568.15936147,56394014.60039169
30394,35019,Don Valley East,501,0,,Mobile,606,Thompson House,Résidence Thompson,1 Overland Drive,1 Overland Drive,Don Mills,Don Mills,ON,M3C 2C3,43.73270495195931,-79.34721427029855,9.0,PointAddress,100.0,86384185.35043313,56473473.44750232
30395,35019,Don Valley East,501,0,,Mobile,606,Twenty Sanderling Place,Place Twenty Sanderling,20 Sanderling Place,20 Sanderling Place,Don Mills,Don Mills,ON,M3C 3R2,43.734389546165716,-79.34870985902234,9.0,PointAddress,100.0,86393048.79040344,56482006.24410979
30606,35020,Don Valley North,500,0,,Mobile,600,Chartwell Gibson Long Term Care Residence,Chartwell Gibson Long Term Care Residence,1925 Steeles Avenue East,"1925, avenue Steeles Est",Toronto,Toronto,ON,M2H 2H3,43.80813482315801,-79.37402381805079,9.0,PointAddress,100.0,86507458.11121891,56683888.103021316
30607,35020,Don Valley North,500,0,,Mobile,600,Chartwell Gibson Retirement Residence (Lounge),Chartwell Gibson Retirement Residence,1955 Steeles Avenue East,"1955, avenue Steeles Est",Toronto,Toronto,ON,M2N 3P1,43.808299849270156,-79.37321379641071,9.0,PointAddress,94.29,86501782.2542653,56680602.87427038
30608,35020,Don Valley North,501,0,,Mobile,602,Bayview Extendicare (Chapel),Bayview Extendicare,550 Cummer Avenue,"550, avenue Cummer",Toronto,Toronto,ON,M2K 2M2,43.79306523180757,-79.39063649988442,8.0,PointAddress,100.0,86633351.58102351,56736594.12868328
30609,35020,Don Valley North,501,0,,Mobile,602,Seniors' Health Centre - NYGH (Solarium),Seniors' Health Centre - NYGH,2 Buchan Court,2 Buchan Court,Toronto,Toronto,ON,M2J 5A3,43.77275778934157,-79.35877533833454,9.0,PointAddress,100.0,86431311.36847788,56573590.95969123
30680,35021,Don Valley West,60,0,A,Ordinary,603,Lawrence Park Community Church,Église communautaire Lawrence Park,2180 Bayview Avenue,"2180, avenue Bayview",Toronto,Toronto,ON,M4N 3K7,43.72518331888751,-79.37989699339222,9.0,PointAddress,100.0,86613639.13971478,56604405.940341696
30681,35021,Don Valley West,60,0,B,Ordinary,603,Glendon College-Hilliard Residential Lobby,Glendon College-Hilliard Residential Lobby,2275 Bayview Avenue,"2275, avenue Bayview",Toronto,Toronto,ON,M4N 3M6,43.725845310215256,-79.38035489422677,9.0,StreetAddress,100.0,86616253.84459697,56607215.98502106
30712,35021,Don Valley West,91,0,A,Ordinary,609,Thorncliffe Park Public School,École publique Thorncliffe Park,80 Thorncliffe Park Drive,80 Thorncliffe Park Drive,Toronto,Toronto,ON,M4H 1K3,43.70579134609617,-79.34292167987174,9.0,PointAddress,100.0,86376236.4769523,56421167.95163962
30713,35021,Don Valley West,91,0,B,Mobile,609,Leaside Retirement Residence ,Leaside Retirement  Residence ,14 William Morgan Drive,14 William Morgan Drive,Toronto,Toronto,ON,M4H 1E8,43.709159125194624,-79.34085792521199,9.0,PointAddress,100.0,86359510.55699861,56416584.167797655
30796,35021,Don Valley West,500,0,,Mobile,609,Leaside Retirement Residence,Leaside Retirement Residence,10 William Morgan Drive,10 William Morgan Drive,Toronto,Toronto,ON,M4H 1E8,43.70899011466303,-79.3415484363205,9.0,PointAddress,100.0,86364348.24614988,56419324.83713455
30797,35021,Don Valley West,500,0,,Mobile,609,Nine-Twenty-One Millwood,Nine-Twenty-One Millwood,921 Millwood Road,921 Millwood Road,Toronto,Toronto,ON,M4G 1X2,43.703123680247124,-79.3633906557215,9.0,PointAddress,100.0,86518092.70842654,56505534.95458569
30946,35022,Dufferin--Caledon,118,0,B,Mobile,605,Parker Towers,Tours Parker,35 Bredin Parkway,35 Bredin Parkway,Orangeville,Orangeville,ON,L9W 3X2,43.92798721803316,-80.10167556448108,9.0,StreetAddress,100.0,91732833.91835465,60201754.18213904
30948,35022,Dufferin--Caledon,118,0,C,Mobile,605,Parker Towers,Tours Parker,45 Bredin Parkway,45 Bredin Parkway,Orangeville,Orangeville,ON,L9W 3X2,43.92812284673753,-80.10204104289745,9.0,StreetAddress,100.0,91735577.07842009,60203745.24968284
30984,35022,Dufferin--Caledon,152,0,A,Ordinary,607,Tony Rose Memorial Sports Centre (Banquet Room),Centre sportif Tony Rose Memorial (salle Banquet),6 Northmen Way,6 Northmen Way,Orangeville,Orangeville,ON,L9W 3B2,43.92230686696489,-80.10524018033297,9.0,StreetAddress,100.0,91765557.13959932,60211758.921520345
30985,35022,Dufferin--Caledon,152,0,B,Mobile,607,Bromount Place,Bromount Place ,8 Fead Street,"8, rue Fead",ORANGEVILLE,ORANGEVILLE,ON,L9W 3X4,43.923554869756416,-80.09974362819571,9.0,PointAddress,100.0,91721497.08690347,60186236.15343545
31058,35022,Dufferin--Caledon,500,0,,Mobile,601,Dufferin Oaks Home for Senior Citizens,Dufferin Oaks Home for Senior Citizens,151 Centre Street,"151, rue Centre",Shelburne,Shelburne,ON,L9V 3R7,44.07661825479477,-80.20162910917875,9.0,StreetAddress,100.0,92394277.73546435,60902730.30856227
31059,35022,Dufferin--Caledon,500,0,,Mobile,601,Dynes-Grey Apartments,Dynes-Grey Apartments,301 1st Avenue East,301 1st Avenue East,Shelburne,Shelburne,ON,L9V 2Y9,44.080180849270164,-80.2004460777022,9.0,PointAddress,100.0,92381790.12412675,60901568.01790835
31060,35022,Dufferin--Caledon,500,0,,Mobile,601,Shelburne Residence,Résidence de Shelburne,200 Robert Street,"200, rue Robert",Shelburne,Shelburne,ON,L9V 3S1,44.08256526787438,-80.20404604414554,9.0,PointAddress,100.0,92408397.0944374,60923031.508708134
31061,35022,Dufferin--Caledon,501,0,,Mobile,612,Jane Place,Jane Place,60 Jane Street,"60, rue Jane",Bolton,Bolton,ON,L7E 2T1,43.87695286482207,-79.73825587942167,9.0,PointAddress,100.0,89027990.8889491,58397322.715762675
31062,35022,Dufferin--Caledon,501,0,,Mobile,612,King Nursing Home,Centre d'accueil King,49 Sterne Street,"49, rue Sterne",Bolton,Bolton,ON,L7E 5T1,43.879294214553575,-79.74037192688544,9.0,PointAddress,100.0,89041532.32287388,58410141.456602916
31063,35022,Dufferin--Caledon,501,0,,Mobile,612,Riverview Terrace,Riverview Terrace,121 Glasgow Road,121 Glasgow Road,Bolton,Bolton,ON,L7E 2N1,43.88165732970755,-79.7446795324324,8.0,PointAddress,100.0,89071092.44958091,58433120.520584166
31064,35022,Dufferin--Caledon,501,0,,Mobile,612,Stationview  Place,Stationview  Place,25 Stationview Place,25 Stationview Place,Bolton,Bolton,ON,L7E 1K8,43.871038500432704,-79.73967956607409,9.0,PointAddress,100.0,89043261.49909672,58396192.23911018
31065,35022,Dufferin--Caledon,501,0,,Mobile,612,The Davis Centre,Centre Davis,80 Allan Drive,80 Allan Drive,Bolton,Bolton,ON,L7E 1P7,43.87400354922413,-79.72521808194404,8.0,PointAddress,100.0,88935245.35470644,58333378.11917727
31066,35022,Dufferin--Caledon,502,0,,Mobile,607,40 Lawrence Avenue,40 Lawrence Avenue,40 Lawrence Avenue,"40, avenue Lawrence",Orangeville,Orangeville,ON,L9W 0C1,43.908625155115935,-80.09933342004744,9.0,PointAddress,100.0,91730986.26836646,60164132.789041884
31067,35022,Dufferin--Caledon,502,0,,Mobile,607,Bethsaida Retirement Home,Bethsaida Retirement Home,3 Hillside Drive,3 Hillside Drive,Orangeville,Orangeville,ON,L9W 1P5,43.91572687812362,-80.10133305938034,9.0,PointAddress,100.0,91740584.88277458,60183572.021474384
31068,35022,Dufferin--Caledon,502,0,,Mobile,607,Horizon Court,Horizon Court,43 Bythia Street,"43, rue Bythia",Orangeville,Orangeville,ON,L9W 3R5,43.91488435204201,-80.09938480268146,9.0,StreetAddress,100.0,91726065.73238294,60172803.32845282
31069,35022,Dufferin--Caledon,502,0,,Mobile,607,Montgomery Village Seniors Community,Montgomery Village Seniors Community,155 Riddell Road,155 Riddell Road,Orangeville,Orangeville,ON,L9W 6R4,43.903707000000054,-80.12430799999996,9.0,PostalExt,97.41,91930925.24427058,60281274.9058469
31070,35022,Dufferin--Caledon,503,0,,Mobile,605,Avalon Care Centre,Avalon Care Centre,355 Broadway,355 Broadway,Orangeville,Orangeville,ON,L9W 3Y3,43.915270296262854,-80.1158324966429,9.0,StreetAddress,100.0,91854540.10338123,60254782.56901648
31071,35022,Dufferin--Caledon,503,0,,Mobile,605,Avalon Retirement Lodge,Centre pour retraités Avalon,355 Broadway,355 Broadway,Orangeville,Orangeville,ON,L9W 3Y3,43.915270296262854,-80.1158324966429,9.0,StreetAddress,100.0,91854540.10338123,60254782.56901648
31072,35022,Dufferin--Caledon,503,0,,Mobile,605,Lord Dufferin Centre,Centre Lord Dufferin,32 First Street,"32, rue First",Orangeville,Orangeville,ON,L9W 2E1,43.921840400773284,-80.09811727355853,9.0,PointAddress,100.0,91710241.31450644,60175888.190329924
31073,35022,Dufferin--Caledon,504,0,,Mobile,608,Caledon Seniors Complex - Maple Grove,Complexe d'âge d'or de Caledon - Maple Grove,1640 Maple Grove Road,1640 Maple Grove Road,Caledon,Caledon,ON,L7K 1B3,43.86385799999999,-79.99698713607197,9.0,PointAddress,100.0,90976177.58216126,59603384.96638999
31074,35022,Dufferin--Caledon,504,0,,Mobile,608,Oliver House,Oliver House,18186 Heart Lake Road,18186 Heart Lake Road,Caledon,Caledon,ON,L7K 3L3,43.8756067562472,-79.96891891072701,9.0,PointAddress,100.0,90751557.86671285,59483424.46282178
31075,35022,Dufferin--Caledon,504,0,,Mobile,608,The Pinnacle,The Pinnacle,9 McClellan Road,9 McClellan Road,Alton,Alton,ON,L7K 2N7,43.85577452426582,-80.06480807141246,8.0,PointAddress,100.0,91506681.90822875,59923137.77058397
31076,35022,Dufferin--Caledon,504,0,,Mobile,608,Walker Road,Walker Road,20 Walker Road,20 Walker Road,Caledon East,Caledon East,ON,L7C 3K2,43.8730556571934,-79.86821143277207,8.0,PointAddress,99.62,89992513.97970776,58999333.6703662
31352,35023,Durham,500,0,,Mobile,600,Port Perry Place,Port Perry Place,15941 Simcoe Street,"15941, rue Simcoe",Port Perry,Port Perry,ON,L9L 1N5,44.11156039912852,-78.95060539598411,8.0,PointAddress,100.0,83480447.60313079,55293181.218569316
31353,35023,Durham,500,0,,Mobile,600,Westshore Village Lakeside Retirement Res,Westshore Village Lakeside Retirement Res,293 Perry Street,"293, rue Perry",Port Perry,Port Perry,ON,L9L 1S6,44.10681616063205,-78.94831626162508,9.0,StreetAddress,100.0,83469611.80048195,55278181.381615125
31354,35023,Durham,501,0,,Mobile,613,Glen Hill Strathaven,Glen Hill Strathaven,264 King Street East,"264, rue King Est",Bowmanville,Bowmanville,ON,L1C 1P9,43.91194718737357,-78.67332441508445,9.0,PointAddress,100.0,81914490.60676229,53962729.51855371
31355,35023,Durham,501,0,,Mobile,613,Lakeridge Health Bowmanville,Lakeridge Health Bowmanville,47 Liberty Street South,"47, rue Liberty Sud",Bowmanville,Bowmanville,ON,L1C 2N4,43.908978362484795,-78.67949945152662,9.0,PointAddress,100.0,81954161.90029718,53982866.8105444
31356,35023,Durham,502,0,,Mobile,611,Seasons Clarington Retirement Community,Seasons Clarington Retirement Community,61 Clarington Boulevard,"61, boulevard Clarington",Bowmanville,Bowmanville,ON,L1C 0H6,43.90696105438869,-78.7065258851354,8.0,PointAddress,100.0,82119990.07812177,54084350.26484682
31357,35023,Durham,502,0,,Mobile,611,Seasons Clarington Retirement Community,Seasons Clarington Retirement Community,65 Calrington Boulevard,"65, boulevard Calrington",Bowmanville,Bowmanville,ON,L1C 0H6,43.907199789341576,-78.7065026093256,9.0,PointAddress,98.44,82119668.08627163,54084545.54516725
31358,35023,Durham,502,0,,Mobile,611,York House,York House,106 Church Street,"106, rue Church",Bowmanville,Bowmanville,ON,L1C 1T2,43.912666212908796,-78.68613519426981,9.0,PointAddress,100.0,81991655.88678713,54012725.920857415
31359,35023,Durham,503,0,,Mobile,613,Glen Hill Marnwood ,Glen Hill Marnwood,26 Elgin Street,"26, rue Elgin",Bowmanville,Bowmanville,ON,L1C 3C7,43.916301161986134,-78.68979281912755,9.0,StreetAddress,100.0,82011132.59126696,54031107.960016474
31360,35023,Durham,503,0,,Mobile,613,Whitecliffe Terrace Retirement Residence,Whitecliffe Terrace Retirement Residence,1460 Highway 2,1460 Highway 2,Courtice,Courtice,ON,L1E 3C4,43.90721732986051,-78.80698113611159,9.0,StreetAddress,100.0,82737104.31638505,54474958.67808478
31361,35023,Durham,504,0,,Mobile,606,Chartwell Wynfield Retirement Residence,Chartwell Wynfield Retirement Residence,431 Woodmount Drive,431 Woodmount Drive,Oshawa,Oshawa,ON,L1K 0P7,43.946871967914326,-78.87432640838442,9.0,StreetAddress,100.0,83126506.83921678,54788322.29082452
31362,35023,Durham,504,0,,Mobile,606,Wynfield Long Term Care Centre,Wynfield Long Term Care Centre,451 Woodmount Drive,451 Woodmount Drive,Oshawa,Oshawa,ON,L1G 8E3,43.94720461753795,-78.87320602922992,9.0,StreetAddress,100.0,83119232.40835251,54784280.10075245
31443,35024,Eglinton--Lawrence,65,0,A,Ordinary,602,Barbara Frum Library,Bibliothèque Barbara Frum,20 Covington Road,20 Covington Road,Toronto,Toronto,ON,M6A 3C1,43.72056115072985,-79.4320546737549,9.0,PointAddress,100.0,86976710.60966846,56824325.26308396
31444,35024,Eglinton--Lawrence,65,0,B,Ordinary,602,Crystal Towers,Crystal Towers,2 Covington Road,2 Covington Road,Toronto,Toronto,ON,M6A 3E2,43.72087949321932,-79.43047905107045,9.0,PointAddress,100.0,86965550.4018014,56817878.53181534
31543,35024,Eglinton--Lawrence,163,0,A,Ordinary,604,50 Lotherton Pathway,50 Lotherton Pathway,50 Lotherton Pathway,50 Lotherton Pathway,Toronto,Toronto,ON,M6B 3Y4,43.70568085152053,-79.46668897391652,9.0,PointAddress,100.0,87229129.84543432,56956453.94024296
31544,35024,Eglinton--Lawrence,163,0,B,Ordinary,604,940 Caledonia,940 Caledonia,940 Caledonia Road,940 Caledonia Road,Toronto,Toronto,ON,M6B 3Y4,43.706512058283806,-79.46536592659699,9.0,PointAddress,100.0,87219248.41297239,56951726.10553738
31545,35024,Eglinton--Lawrence,164,0,A,Ordinary,604,109 Lotherton Pathway,109 Lotherton Pathway,109 Lotherton Pathway,109 Lotherton Pathway,Toronto,Toronto,ON,M6B 2G6,43.70638688626759,-79.467968837986,9.0,StreetAddress,100.0,87237483.02908733,56962952.509122886
31546,35024,Eglinton--Lawrence,164,0,B,Ordinary,604,100 Lotherton Pathway,100 Lotherton Pathway,100 Lotherton Pathway,100 Lotherton Pathway,Toronto,Toronto,ON,M6B 2G8,43.70637639800335,-79.46785806382373,9.0,PointAddress,100.0,87236719.48101419,56962454.48167839
31791,35025,Elgin--Middlesex--London,500,0,,Mobile,609,Caressant Care Mary Bucke,Caressant Care,4 Mary Bucke Street,"4, rue Mary Bucke",St. Thomas,St. Thomas,ON,N5R 5J6,42.767140763368026,-81.16879828252185,9.0,StreetAddress,100.0,102110317.23128332,64344368.81989433
31792,35025,Elgin--Middlesex--London,500,0,,Mobile,609,St. Thomas Elgin General Hospital Continuing Care,St. Thomas Elgin General Hospital Continuing Care,189 Elm Street,"189, rue Elm",St. Thomas,St. Thomas,ON,N5R 5C4,42.7641944599143,-81.18145527186488,9.0,StreetAddress,100.0,102237482.90361288,64415526.337279566
31793,35025,Elgin--Middlesex--London,501,0,,Mobile,605,Chartwell Aylmer,Chartwell Aylmer,465 Talbot Street West,"465, rue Talbot Ouest",Aylmer,Aylmer,ON,N5H 1K8,42.7732800544764,-80.9953634455236,9.0,StreetAddressExt,98.9,100432751.69272165,63337775.50601932
31794,35025,Elgin--Middlesex--London,501,0,,Mobile,605,Extendicare Port Stanley,Extendicare Port Stanley,4551 East Road,4551 East Road,Port Stanley,Port Stanley,ON,N5L 1J6,42.67225332290801,-81.20817118584058,9.0,StreetAddress,98.36,102585768.07003678,64436515.91169816
32023,35026,Essex,500,0,,Mobile,601,La Chaumière,La Chaumière,1023 County Road 22,1023 County Road 22,Lakeshore,Lakeshore,ON,N0R 1A0,42.29919577228515,-82.77684158874179,9.0,StreetAddress,100.0,121723183.58844715,75099952.4121116
32024,35026,Essex,500,0,,Mobile,601,Seasons Lakeshore,Seasons Lakeshore,1700 County 22 Road,1700 County 22 Road,Lakeshore,Lakeshore,ON,N0R 1A0,42.293291456890685,-82.72127898792964,9.0,StreetAddress,98.4,120932846.02894485,74613331.90513355
32025,35026,Essex,500,0,,Mobile,601,St. Joachim Manor,Manoir St. Joachim,2718 County Road 42,2718 County Road 42,St.Joachim,St. Joachim,ON,N0R 1S0,42.27186235882272,-82.63893128438015,9.0,StreetAddress,100.0,119795868.60917439,73882298.71436173
32026,35026,Essex,501,0,,Mobile,605,Harrowood Senior Community,Harrowood Senior Community,1 Pollard Drive,1 Pollard Drive,Harrow,Harrow,ON,N0R 1G0,42.02918700000005,-82.92049099999996,9.0,PostalExt,99.04,124135178.54969494,75863336.89977024
32027,35026,Essex,501,0,,Mobile,605,Iler Lodge,Iler Lodge,111 Iler Avenue,"111, avenue Iler",Essex,Essex,ON,N8M 1T6,42.16995045798924,-82.82300491817153,9.0,PointAddress,100.0,122534823.38387941,75264477.53140609
32028,35026,Essex,502,0,,Mobile,607,Chartwell Oak Park LaSalle,Chartwell Oak Park LaSalle,3955 Thirteenth Street,"3955, rue Thirteenth",LaSalle,LaSalle,ON,N9H 2S7,42.246881781003026,-83.03375893427169,9.0,PointAddress,100.0,125622279.70570931,77296169.17627564
32029,35026,Essex,502,0,,Mobile,607,Seasons Royal Oak Village,Seasons Royal Oak Village,2400 Sandwich Parkway West,2400 Sandwich Parkway West,LaSalle,LaSalle,ON,N9H 2S8,42.24045586640538,-83.01522090437314,9.0,StreetAddress,100.0,125343232.25155613,77113453.9224349
32030,35026,Essex,503,0,,Mobile,613,Country Village Health Care Centre,Country Village Health Care Centre,440 County Road 8,440 County Road 8,South Woodslee,South Woodslee,ON,N0R 1V0,42.17568518202426,-82.76195070845723,9.0,StreetAddress,100.0,121642078.65601683,74747675.05236225
32031,35026,Essex,503,0,,Mobile,613,Kingsville Court Retirement Centre,Kingsville Court Retirement Centre,240 Main Street East,"240, rue Main Est",Kingsville,Kingsville,ON,N9Y 1A6,42.03867505038498,-82.72827800337751,9.0,StreetAddress,100.0,121306217.79217082,74212673.91310096
32032,35026,Essex,504,0,,Mobile,611,Richmond Terrace,Terrasse Richmond,89 Rankin Avenue,"89, avenue Rankin",Amherstburg,Amherstburg,ON,N9V 1E7,42.10389567428066,-83.11164038392594,9.0,StreetAddress,100.0,127002138.70314965,77751361.8935428
32033,35026,Essex,504,0,,Mobile,611,Seasons Amherstburg,Seasons Amherstburg,681 Front Road South,681 Front Road South,Amherstburg,Amherstburg,ON,N9V 0B4,42.0871446235817,-83.11017610984351,9.0,StreetAddress,100.0,126997824.68829559,77705799.31364292
32034,35026,Essex,505,0,,Mobile,613,Royal Oak Long Term Care Centre,Royal Oak Long Term Care Centre,1750 Division Road North,1750 Division Road North,Kingsville,Kingsville,ON,N9Y 2S8,42.050643090715276,-82.73858522277747,8.0,PointAddress,100.0,121440927.33021444,74321689.4704749
32035,35026,Essex,505,0,,Mobile,613,Southgate Residence,Résidence Southgate,38 Park Street,"38, rue Park",Kingsville,Kingsville,ON,N9Y 1N4,42.027617206272346,-82.73913514628644,8.0,PointAddress,100.0,121473506.72066693,74284631.56788534
32119,35027,Etobicoke Centre,70,0,A,Ordinary,605,Humber Valley Village Public School,École publique de Humber Valley Village,65 Hartfield Road,65 Hartfield Road,Etobicoke,Etobicoke,ON,M9A 3E1,43.66561211933759,-79.52748541644077,9.0,PointAddress,100.0,87687233.07873572,57172530.057748616
32120,35027,Etobicoke Centre,70,0,B,Mobile,605,Delmanor-Prince Edward,Delmanor Prince Edward,4180 Dundas Street West,"4180, rue Dundas Ouest",Etobicoke,Etobicoke,ON,M8X 1X8,43.660942531248025,-79.50980853332551,9.0,PointAddress,100.0,87566612.8308101,57088584.66676168
32273,35027,Etobicoke Centre,500,0,A,Mobile,604,Ukrainian Canadian Care Centre,Centre de soins canadien ukrainien,60 Richview Road,60 Richview Road,Etobicoke,Etobicoke,ON,M9A 5E4,43.68410511466305,-79.51872668486341,9.0,PointAddress,100.0,87610715.66665648,57157536.17215612
32274,35027,Etobicoke Centre,500,0,B,Ordinary,604,Scarlett Heights Retirement Residence,Scarlett Heights Retirement Residence,4005 Eglinton Avenue West,"4005, avenue Eglinton Ouest",Toronto,Toronto,ON,M9A 5H3,43.6832895092977,-79.52018768734541,9.0,StreetAddress,100.0,87621649.10402699,57162940.4831319
32275,35027,Etobicoke Centre,501,0,,Mobile,612,Highbourne Life Care Centre,Highbourne Life Care Centre,420 The East Mall,420 The East Mall,Toronto,Toronto,ON,M9B 3Z9,43.647405202060085,-79.56022396465434,9.0,PointAddress,100.0,87933279.73674405,57294205.591636665
32276,35027,Etobicoke Centre,501,0,,Mobile,612,The Westbury,The Westbury,495 The West Mall,495 The West Mall,Toronto,Toronto,ON,M9C 5R8,43.64817522038195,-79.56810599148857,8.0,PointAddress,99.14,87988582.24554268,57330234.947620586
32277,35027,Etobicoke Centre,502,0,,Mobile,613,Dom Lipa Nursing Home,Dom Lipa Nursing Home,52 Neilson Drive,52 Neilson Drive,Toronto,Toronto,ON,M9C 1V7,43.6296168419957,-79.5650418419957,9.0,StreetAddress,100.0,87981777.70371616,57292747.86997797
32278,35027,Etobicoke Centre,502,0,,Mobile,613,Wesburn Manor,Wesburn Manor,400 The West Mall,400 The West Mall,Etobicoke,Etobicoke,ON,M9C 5S1,43.64438098744919,-79.56716982295553,9.0,PointAddress,100.0,87984992.5957773,57321191.99781717
32293,35028,Etobicoke--Lakeshore,1,0,A,Ordinary,602,Lambton Kingsway Public School,École publique Lambton Kingsway,525 Prince Edward Drive,525 Prince Edward Drive,Toronto,Toronto,ON,M8X 2M6,43.6586107260661,-79.50956682581241,9.0,PointAddress,99.63,87566784.74982752,57084537.47670867
32294,35028,Etobicoke--Lakeshore,1,0,B,Mobile,602,Kingsway Retirement Residence,Kingsway Retirement Residence,4251 Dundas Street West,"4251, rue Dundas Ouest",Toronto,Toronto,ON,M8X 2Z5,43.65903647264711,-79.51458002885344,9.0,PointAddress,100.0,87601673.93982853,57107165.243219204
32315,35028,Etobicoke--Lakeshore,20,0,A,Ordinary,600,Church of the Resurrection,Church of the Resurrection,1 Resurrection Road,1 Resurrection Road,Toronto,Toronto,ON,M9A 5G1,43.643364149604665,-79.53092027918537,9.0,PointAddress,100.0,87729315.29662693,57159196.09449026
32317,35028,Etobicoke--Lakeshore,20,0,C,Ordinary,600,Palais,Palais,3 Michael Power Place,3 Michael Power Place,Toronto,Toronto,ON,M9A 0A2,43.64399501915859,-79.52959374831269,8.0,PointAddress,100.0,87719454.34126897,57154144.33355042
32318,35028,Etobicoke--Lakeshore,21,0,A,Ordinary,600,Church of the Resurrection,Church of the Resurrection,1 Resurrection Road,1 Resurrection Road,Toronto,Toronto,ON,M9A 5G1,43.643364149604665,-79.53092027918537,9.0,PointAddress,100.0,87729315.29662693,57159196.09449026
32319,35028,Etobicoke--Lakeshore,21,0,B,Ordinary,600,Serrano at Village Gate West,Serrano at Village Gate West,11 Dunbloor Road,11 Dunbloor Road,Toronto,Toronto,ON,M9A 0B2,43.64340606774754,-79.53308101869723,9.0,PointAddress,100.0,87744523.52262555,57168798.49088373
32380,35028,Etobicoke--Lakeshore,79,0,A,Ordinary,608,Church on the Queensway,Church on the Queensway,1536 The Queensway,1536 The Queensway,Toronto,Toronto,ON,M8Z 1T5,43.618688055802316,-79.53713768388246,9.0,PointAddress,100.0,87793008.6293778,57155031.619702205
32381,35028,Etobicoke--Lakeshore,79,0,B,Ordinary,608,IQ,IQ,1185 The Queensway,1185 The Queensway,Toronto,Toronto,ON,M8Z 0C6,43.62205986369689,-79.52180294281271,9.0,PointAddress,100.0,87682156.43281576,57091657.37367918
32382,35028,Etobicoke--Lakeshore,79,0,C,Mobile,608,Kingsway-Lambton Home for Seniors,Kingsway-Lambton Home for Seniors,781 The Queensway,781 The Queensway,Toronto,Toronto,ON,M8Z 6A8,43.625621893127246,-79.50578478628314,9.0,PointAddress,100.0,87566659.140737,57025697.677579485
32394,35028,Etobicoke--Lakeshore,89,0,B,Ordinary,610,Ocean Club,Ocean Club,59 Annie Craig Drive,59 Annie Craig Drive,Toronto,Toronto,ON,M8Z 0C4,43.62559592526987,-79.47841620430144,9.0,StreetAddress,98.42,87374974.39980556,56905640.39443085
32395,35028,Etobicoke--Lakeshore,89,0,C,Ordinary,610,Nautilus,Nautilus,16 Brookers Lane,16 Brookers Lane,Toronto,Toronto,ON,M8V 0A5,43.62715250929827,-79.4788403620954,9.0,StreetAddress,100.0,87376694.4306774,56909482.60163043
32396,35028,Etobicoke--Lakeshore,89,0,D,Ordinary,610,Waterscapes,Waterscapes,80 Marine Parade Drive,80 Marine Parade Drive,Toronto,Toronto,ON,M8V 0A3,43.62631114071785,-79.47694528937022,9.0,PointAddress,100.0,87364126.60283807,56900119.14131165
32404,35028,Etobicoke--Lakeshore,92,0,B,Ordinary,610,Nevis,Nevis,88 Palace Pier Court,88 Palace Pier Court,Toronto,Toronto,ON,M8V 4C2,43.631015931704205,-79.47505271262034,9.0,PointAddress,100.0,87347149.99291144,56897845.61030368
32405,35028,Etobicoke--Lakeshore,92,0,C,Ordinary,610,Westlake Village Complex,Westlake Village Complex,2200 Lake Shore Boulevard West,"2200, boulevard Lake Shore Ouest",Toronto,Toronto,ON,M8V 1A4,43.622565483784264,-79.4816654513528,9.0,PointAddress,100.0,87400106.54079941,56915990.27961325
32406,35028,Etobicoke--Lakeshore,92,0,D,Ordinary,610,Westlake Village Complex,Westlake Village Complex,2200 Lake Shore Boulevard West,"2200, boulevard Lake Shore Ouest",Toronto,Toronto,ON,M8V 1A4,43.622565483784264,-79.4816654513528,9.0,PointAddress,100.0,87400106.54079941,56915990.27961325
32407,35028,Etobicoke--Lakeshore,92,0,E,Ordinary,610,Westlake Village Complex,Westlake Village Complex,2200 Lake Shore Boulevard West,"2200, boulevard Lake Shore Ouest",Toronto,Toronto,ON,M8V 1A4,43.622565483784264,-79.4816654513528,9.0,PointAddress,100.0,87400106.54079941,56915990.27961325
32408,35028,Etobicoke--Lakeshore,92,0,F,Mobile,610,Hearthstone by the Bay,Hearthstone by the Bay,3 Marine Parade Drive,3 Marine Parade Drive,Toronto,Toronto,ON,M8V 3Z5,43.63007294061966,-79.47632577003876,9.0,PointAddress,100.0,87356793.83802614,56902209.645852834
32440,35028,Etobicoke--Lakeshore,118,0,A,Ordinary,611,Seventh Street Junior School,Seventh Street School,101 7th Street,101 7th Street,Toronto,Toronto,ON,M8V 3B5,43.598744605214996,-79.50434572525992,9.0,StreetAddress,100.0,87578071.76890942,56984989.52885691
32441,35028,Etobicoke--Lakeshore,118,0,B,Mobile,611,Woods Manor,Woods Manor,2835 Lake Shore Boulevard,"2835, boulevard Lake Shore",Toronto,Toronto,ON,M8V 3V8,43.60155686759201,-79.50158398666979,9.0,PointAddress,99.63,87556433.78955716,56976459.5668001
32447,35028,Etobicoke--Lakeshore,123,0,A,Ordinary,612,Lakeshore Arena,Lakeshore Arena,400 Kipling Avenue,"400, avenue Kipling",Etobicoke,Etobicoke,ON,M8V 3L1,43.604227351924564,-79.51949148531348,9.0,PointAddress,100.0,87680176.01543832,57058627.43746285
32448,35028,Etobicoke--Lakeshore,123,0,B,Mobile,612,Lerette Manor,Lerette Manor,250 Twelfth Street,"250, rue Twelfth",Toronto,Toronto,ON,M8V 3Y8,43.600448306243784,-79.51119139327857,9.0,StreetAddress,100.0,87624806.98722374,57017256.64774381
32464,35028,Etobicoke--Lakeshore,138,0,A,Ordinary,612,The Assembly Hall,The Assembly Hall,1 Colonel Samuel Smith Park Drive,1 Colonel Samuel Smith Park Drive,Toronto,Toronto,ON,M8V 4B6,43.597460534018,-79.51661971293838,8.0,PointAddress,100.0,87665383.01897284,57037314.51412504
32465,35028,Etobicoke--Lakeshore,138,0,B,Ordinary,612,Humber College,Collège Humber,3199 Lake Shore Boulevard West,"3199, boulevard Lake Shore Ouest",Toronto,Toronto,ON,M8V 1K8,43.59741589312726,-79.52037370246411,9.0,PointAddress,100.0,87691846.82338485,57053787.2607283
32479,35028,Etobicoke--Lakeshore,152,0,A,Ordinary,606,Alderwood United Church,Alderwood United Church,44 Delma Drive,44 Delma Drive,Toronto,Toronto,ON,M8W 4N6,43.6034141987132,-79.55062084378756,9.0,PointAddress,100.0,87900623.06307074,57195089.80595159
32480,35028,Etobicoke--Lakeshore,152,0,B,Ordinary,606,One Sherway T4,One Sherway T4,205 Sherway Gardens Road,205 Sherway Gardens Road,Toronto,Toronto,ON,M9C 0A5,43.6099747504475,-79.55748614611356,9.0,PointAddress,100.0,87943988.63346753,57233951.248533055
32481,35028,Etobicoke--Lakeshore,152,0,C,Ordinary,606,One Sherway T4,One Sherway T4,205 Sherway Gardens Road,205 Sherway Gardens Road,Toronto,Toronto,ON,M9C 0A5,43.6099747504475,-79.55748614611356,9.0,PointAddress,100.0,87943988.63346753,57233951.248533055
32482,35028,Etobicoke--Lakeshore,153,0,A,Ordinary,607,Our Lady of the Miraculous Medal Church,Our Lady of the Miraculous Medal Church,739 Browns Line,739 Browns Line,Toronto,Toronto,ON,M8W 3V7,43.60786163171549,-79.54783431297314,8.0,PointAddress,100.0,87877324.47406231,57188460.69258547
32483,35028,Etobicoke--Lakeshore,153,0,B,Mobile,607,Jubilee Centre,Jubilee Centre,256 Sheldon Avenue,"256, avenue Sheldon",Toronto,Toronto,ON,M8W 4X8,43.60862059948651,-79.54572167242725,9.0,PointAddress,100.0,87861767.00539628,57180082.32664505
32563,35028,Etobicoke--Lakeshore,500,0,A,Mobile,604,Ivan Franko Home,Ivan Franko Home,767 Royal York Road,767 Royal York Road,Toronto,Toronto,ON,M8Y 2T3,43.63757791424772,-79.5073509190665,9.0,PointAddress,100.0,87568079.52643637,57047879.47847966
32564,35028,Etobicoke--Lakeshore,500,0,A,Mobile,604,Labdara Lithuanian Nursing Home,Labdara Lithuanian Nursing Home,5 Resurrection Road,5 Resurrection Road,Toronto,Toronto,ON,M9A 5G1,43.64381498779498,-79.5311500990538,9.0,PointAddress,100.0,87730574.13207361,57160789.415341556
32566,35028,Etobicoke--Lakeshore,501,0,A,Mobile,612,Garden Court Nursing Home,Garden Court Nursing Home,1 Sand Beach Road,1 Sand Beach Road,Toronto,Toronto,ON,M8V 2W2,43.60190194615961,-79.49705630125813,9.0,PointAddress,100.0,87524394.43960299,56957030.90524504
32567,35028,Etobicoke--Lakeshore,501,0,A,Mobile,612,Lakeshore Lodge,Lakeshore Lodge,3197 Lake Shore Boulevard West,"3197, boulevard Lake Shore Ouest",Etobicoke,Etobicoke,ON,M8V 3X5,43.59754382041672,-79.5197746470945,9.0,PointAddress,100.0,87687525.76853782,57051312.58229827
32748,35029,Etobicoke North,500,0,,Mobile,605,Kipling Acres,Kipling Acres,2233 Kipling Avenue,"2233, avenue Kipling",Etobicoke,Etobicoke,ON,M9W 4L3,43.724848325033,-79.57294694841089,8.0,PointAddress,100.0,87961107.78356752,57450375.55838056
32749,35029,Etobicoke North,500,0,,Mobile,605,Revera Westside,Revera Westside,1145 Albion Road,1145 Albion Road,Etobicoke,Etobicoke,ON,M9V 4J7,43.73761370327218,-79.56759677436659,9.0,PointAddress,100.0,87912829.28895015,57442919.259578854
32750,35029,Etobicoke North,501,0,,Mobile,604,Deerwood Creek Care Community,Deerwood Creek Care Community,70 Humberline Drive,70 Humberline Drive,Etobicoke,Etobicoke,ON,M9W 7H3,43.73207267747717,-79.61710673746306,9.0,PointAddress,100.0,88270087.79396674,57657496.948677
32751,35029,Etobicoke North,501,0,,Mobile,604,Humber Valley Terrace,Humber Valley Terrace,95 Humber College Boulevard,"95, boulevard Humber College",Etobicoke,Etobicoke,ON,M9V 5B5,43.730879826094686,-79.59878977602295,9.0,StreetAddress,100.0,88140164.566796,57573707.32563659
32886,35030,Flamborough--Glanbrook,118,0,A,Ordinary,608,Winterberry Heights Church of the Salvation Army,Winterberry Heights Church of the Salvation Army,300 Winterberry Road,300 Winterberry Road,Stoney Creek,Stoney Creek,ON,L8J 2P7,43.19330686011886,-79.80623221729486,9.0,PointAddress,98.36,90088762.908052,57814433.960326634
32887,35030,Flamborough--Glanbrook,118,0,B,Mobile,608,Heritage Green Seniors Centre,Heritage Green Seniors Centre,351 Isaac Brock Drive,351 Isaac Brock Drive,Stoney Creek,Stoney Creek,ON,L8J 1Y1,43.19315974854291,-79.788929230393,9.0,PointAddress,100.0,89960170.77058183,57734868.28625288
32961,35030,Flamborough--Glanbrook,500,0,,Mobile,602,Eaton Place,Eaton Place,298 Carlisle Road,298 Carlisle Road,Carlisle,Carlisle,ON,L0R 1H2,43.395495595822496,-79.9787305516483,8.0,PointAddress,100.0,91227508.8800375,58890456.75246275
32962,35030,Flamborough--Glanbrook,500,0,,Mobile,602,Elim Villa Apartments,Appartements Elim Villa,87 Hamilton Street North,"87, rue Hamilton Nord",Waterdown,Waterdown,ON,L0R 2H6,43.334313633620056,-79.90022802986304,9.0,PointAddress,98.64,90679412.57613108,58437519.58718834
32963,35030,Flamborough--Glanbrook,500,0,,Mobile,602,Freelton Lion's Villa,Freelton Lion's Villa,390 Freelton Road,390 Freelton Road,Freelton,Freelton,ON,N0B 2J0,43.40842899697023,-80.05125312098235,9.0,PointAddress,98.38,91777553.7552058,59256184.20096953
32964,35030,Flamborough--Glanbrook,501,0,,Mobile,602,Alexander Place Long Term Care,Alexander Place Long Term Care,329 Parkside Drive,329 Parkside Drive,Waterdown,Waterdown,ON,L0R 2H0,43.340950391915165,-79.89927755539827,9.0,PointAddress,93.85,90666753.27218376,58441873.327913515
32965,35030,Flamborough--Glanbrook,501,0,,Mobile,602,Village Manor,Centre d'accueil Village,57 John Street West,"57, rue John Ouest",Waterdown,Waterdown,ON,L0R 2H4,43.33530801275328,-79.89834342434662,9.0,PointAddress,98.46,90664326.06645316,58429997.6606096
32966,35030,Flamborough--Glanbrook,501,0,,Mobile,602,Waterdown Manor,Waterdown Manor,335 Dundas Street East,"335, rue Dundas Est",Waterdown,Waterdown,ON,L0R 2H0,43.33478429952644,-79.89131059160931,8.0,PointAddress,94.29,90611556.94726361,58396331.992221735
32967,35030,Flamborough--Glanbrook,502,0,,Mobile,603,Sisters of St. Joseph,Sisters of St. Joseph,574 Northcliffe Avenue,"574, avenue Northcliffe",Dundas,Dundas,ON,L9H 7L9,43.296332807894565,-79.89995314322802,9.0,PointAddress,100.0,90708577.39280383,58385776.779525355
32968,35030,Flamborough--Glanbrook,502,0,,Mobile,603,Sisters of the Precious Blood,Sisters of the Precious Blood,154 Northcliffe Avenue,"154, avenue Northcliffe",Dundas,Dundas,ON,L9H 7L9,43.29633583400672,-79.89995306215027,9.0,PointAddress,100.0,90708574.29033034,58385780.4199971
32969,35030,Flamborough--Glanbrook,503,0,A,Mobile,605,St. Elizabeth Retirement Residence,St. Elizabeth Retirement Residence,391 Rymal Road West,391 Rymal Road West,Hamilton,Hamilton,ON,L9B 1V2,43.205810900340616,-79.90679787414155,9.0,PointAddress,100.0,90834852.33568129,58297489.041266814
32971,35030,Flamborough--Glanbrook,503,0,B,Mobile,605,The Westmount Terrace,The Westmount Terrace,723 Rymal Street West,"723, rue Rymal Ouest",Hamilton,Hamilton,ON,L9B 2W1,43.21024800000005,-79.92650149999996,9.0,PostalExt,92.57,90981051.9233575,58395850.51048339
32972,35030,Flamborough--Glanbrook,504,0,A,Mobile,608,Heritage Green Nursing Home,Heritage Green Nursing Home,353 Isaac Brock Drive,353 Isaac Brock Drive,Stoney Creek,Stoney Creek,ON,L8J 2J3,43.19354616180968,-79.78892768365132,9.0,PointAddress,100.0,89959845.49284701,57735370.05236692
32974,35030,Flamborough--Glanbrook,504,0,B,Mobile,608,Ridgeview Long Term Care Centre,Ridgeview Long Term Care Centre,385 Highland Road West,385 Highland Road West,Stoney Creek,Stoney Creek,ON,L8J 3X9,43.188060699953965,-79.80288486969815,9.0,PointAddress,100.0,90068095.90830608,57792141.98793831
33199,35031,Glengarry--Prescott--Russell,212,0,A,Ordinary,615,Russell Arena,Arena de Russell,1084 Concession Street,"1084, rue Concession",Russell,Russell,ON,K4R 1C8,45.26028408408114,-75.3601349195083,9.0,StreetAddress,100.0,65358185.33920106,45272674.84921902
33200,35031,Glengarry--Prescott--Russell,212,0,B,Mobile,615,Russell Meadow Retirement Community,Russell Meadow Retirement Community,475 Church Street,475 Church Street,Russell,Russell,ON,K4R 0A9,45.25600332032981,-75.35452333114985,9.0,PointAddress,100.0,65340187.99305464,45255025.82364714
33212,35031,Glengarry--Prescott--Russell,500,0,,Mobile,600,Carillon Manor,Carillon Manor,1988 Principale Street,"1988, rue Principale",Chute-à-Blondeau,Chute-à-Blondeau,ON,K0B 1B0,45.589295053473904,-74.473252024379,9.0,StreetAddress,100.0,62079407.55806172,43517961.114122204
33213,35031,Glengarry--Prescott--Russell,500,0,,Mobile,600,Champlain Residence,Résidence Champlain,428 Front Road,428 Front Road,L'Orignal,L'Orignal,ON,K0B 1K0,45.62958081992578,-74.66995029104368,8.0,PointAddress,98.0,62708450.25175132,43991245.00923891
33214,35031,Glengarry--Prescott--Russell,500,0,,Mobile,600,McGill Manor 2,McGill Manor 2,261 McGill Street,"261, rue McGill",Hawkesbury,Hawkesbury,ON,K6A 1P9,45.60812917236391,-74.61392154530999,9.0,StreetAddress,100.0,62533647.568123356,43846437.80370983
33215,35031,Glengarry--Prescott--Russell,501,0,,Mobile,602,Place Rideau,Place Rideau,481 Main Street East,"481, rue Main Est",Hawkesbury,Hawkesbury,ON,K6A 1B3,45.61048143883066,-74.60361561642338,9.0,PointAddress,100.0,62497887.93063507,43825483.97600863
33216,35031,Glengarry--Prescott--Russell,501,0,,Mobile,602,Prescott-Russell Residence,Résidence Prescott-Russell,1020 Cartier Boulevard,"1020, boulevard Cartier",Hawkesbury,Hawkesbury,ON,K6A 1W7,45.600347984856725,-74.61257095537108,9.0,StreetAddress,100.0,62533760.64969744,43836526.05529357
33217,35031,Glengarry--Prescott--Russell,502,0,,Mobile,602,McGill Manor,Manoir McGill,342 McGill Street,"342, rue McGill",Hawkesbury,Hawkesbury,ON,K6A 3V5,45.60761089442967,-74.61446685458166,9.0,StreetAddress,100.0,62535774.76008356,43847198.45638916
33218,35031,Glengarry--Prescott--Russell,502,0,,Mobile,602,Mont-Roc Place,Place Mont-Roc,100 Industriel Boulevard,"100, boulevard Industriel",Hawkesbury,Hawkesbury,ON,K6A 3M8,45.59898576433841,-74.61340200412903,9.0,StreetAddress,100.0,62537341.91626075,43837177.700789206
33219,35031,Glengarry--Prescott--Russell,503,0,,Mobile,605,Auberge Plein Soleil,Auberge Plein Soleil,258 Telegraph Street,"258, rue Telegraph",Alfred,Alfred,ON,K0B 1A0,45.55947058336903,-74.87809163896138,9.0,StreetAddress,100.0,63458907.286969006,44403231.729067996
33220,35031,Glengarry--Prescott--Russell,503,0,,Mobile,605,Caledonia Manor,Manoir Caledonia,138 Caledonia Road,138 Caledonia Road,St-Isidore,St-Isidore,ON,K0C 2B0,45.38451578100302,-74.90061541098775,8.0,PointAddress,100.0,63642034.247378,44297442.17308781
33221,35031,Glengarry--Prescott--Russell,503,0,,Mobile,605,Mon Chez Nous Nursing Home,Centre d'accueil Mon Chez Nous,2025 Lajoie Street,"2025, rue Lajoie",Lefaivre,Lefaivre,ON,K0B 1J0,45.63911118078551,-74.89508577775302,9.0,StreetAddress,100.0,63469510.9816175,44514238.154673345
33222,35031,Glengarry--Prescott--Russell,503,0,,Mobile,605,Pension du Bonheur,Pension du Bonheur,176 St-Joseph Street,"176, rue St-Joseph",Alfred,Alfred,ON,K0B 1A0,45.560848683075,-74.87629539359062,9.0,StreetAddress,100.0,63451882.2538345,44400326.30376786
33223,35031,Glengarry--Prescott--Russell,504,0,,Mobile,606,Pinecrest Nursing Home,Centre d'accueil Pinecrest,101 Parent Street,"101, rue Parent",Plantagenet,Plantagenet,ON,K0B 1L0,45.54271703909658,-74.99838498260176,8.0,PointAddress,100.0,63887125.24762697,44667817.17647086
33224,35031,Glengarry--Prescott--Russell,504,0,,Mobile,606,Quatre-Saisons Residence,Résidence Quatre-Saisons,760 Station Street,"760, rue Station",Plantagenet,Plantagenet,ON,K0B 1L0,45.51749714741163,-74.98429454997392,9.0,PointAddress,100.0,63853102.60177142,44611983.26192516
33225,35031,Glengarry--Prescott--Russell,504,0,,Mobile,606,St. Luc Villa,Villa St. Luc,839 Cartier Street,"839, rue Cartier",Curran,Curran,ON,K0B 1C0,45.49031308630053,-74.99266893095346,9.0,PointAddress,100.0,63898872.24743727,44606908.22137009
33226,35031,Glengarry--Prescott--Russell,505,0,,Mobile,608,Croissing Residence Latraversé,Croissing Residence Latraversé,2526 Laurier Street,"2526, rue Laurier",Rockland,Rockland,ON,K4K 1K6,45.54465879268846,-75.29686650862699,9.0,PointAddress,100.0,64951296.43400987,45382195.50102656
33227,35031,Glengarry--Prescott--Russell,505,0,,Mobile,608,Jardins Bellerive Retirement Centre,Centre de retraite Jardins Bellerive,2950 Laurier Street,"2950, rue Laurier",Rockland,Rockland,ON,K4K 1T3,45.53769596518599,-75.30489114380683,9.0,StreetAddress,100.0,64984805.99287202,45395296.58838045
33228,35031,Glengarry--Prescott--Russell,505,0,,Mobile,608,Simon Residence,Résidence Simon,845 St. Jean Street,"845, rue St. Jean",Rockland,Rockland,ON,K4K 1K5,45.54528346073055,-75.29195347501303,9.0,PointAddress,100.0,64933044.38830605,45370821.51730928
33230,35031,Glengarry--Prescott--Russell,507,0,,Mobile,620,Alexandria Community Nursing Home,Centre d'accueil communautaire d'Alexandria,92 Centre Street,"92, rue Centre",Alexandria,Alexandria,ON,K0C 1A0,45.311444543396604,-74.63336502974573,9.0,StreetAddress,100.0,62774330.07835429,43626501.29383876
33231,35031,Glengarry--Prescott--Russell,507,0,,Mobile,620,Château Glengarry,Château Glengarry,105 St. Paul Street,"105, rue St. Paul",Alexandria,Alexandria,ON,K0C 1A0,45.31110299408509,-74.631538514221,9.0,StreetAddress,100.0,62768404.59001316,43622131.549841575
33232,35031,Glengarry--Prescott--Russell,508,0,,Mobile,620,Maxville Manor,Manoir Maxville,80 Mechanic Street,"80, rue Mechanic",Maxville,Maxville,ON,K0C 1A0,45.291184098586406,-74.85023974260459,9.0,StreetAddress,99.62,63523859.96211092,44097602.60396273
33233,35031,Glengarry--Prescott--Russell,508,0,,Mobile,620,The Palace,The Palace,69 St. Paul Street,"69, rue St. Paul",Alexandria,Alexandria,ON,K0C 1A0,45.310652378613625,-74.63250100308707,9.0,PointAddress,100.0,62771899.06572145,43623873.22396278
33234,35031,Glengarry--Prescott--Russell,509,0,,Mobile,609,Champagne Residence,Résidence Champagne,5779 Rockdale Road,5779 Rockdale Road,Vars,Vars,ON,K0A 3H0,45.35326356731483,-75.35143728541777,9.0,PointAddress,100.0,65268891.100755304,45337881.88959799
33235,35031,Glengarry--Prescott--Russell,509,0,,Mobile,609,Cumberland Lodge,Pavillon Cumberland,2564 Market Street,"2564, rue Market",Cumberland,Cumberland,ON,K4C 1P3,45.51662454501186,-75.40659725171689,9.0,PointAddress,100.0,65370725.4474128,45625016.62845655
33236,35031,Glengarry--Prescott--Russell,510,0,A,Mobile,611,Pine Rest Nursing Home,Pine Rest Nursing Home,5876 Buckland Road,5876 Buckland Road,Vars,Vars,ON,K0A 3H0,45.35165307022903,-75.354660127849,9.0,PointAddress,100.0,65281717.55975825,45344249.2522904
33237,35031,Glengarry--Prescott--Russell,510,0,A,Mobile,611,Résidence Ste-Marie,Résidence Ste-Marie,5855 Buckland Road,5855 Buckland Road,Vars,Vars,ON,K0A 3H0,45.352254206763284,-75.35425947137769,9.0,PointAddress,100.0,65279875.24879843,45343829.92618425
33238,35031,Glengarry--Prescott--Russell,510,0,A,Mobile,611,Sarsfield Colonial Home,Sarsfield Colonial Home,2861 Colonial Road,2861 Colonial Road,Sarsfield,Sarsfield,ON,K0A 3E0,45.441069049079886,-75.34713055395598,9.0,PointAddress,100.0,65198855.8590719,45408861.93584059
33239,35031,Glengarry--Prescott--Russell,510,0,B,Mobile,611,Caressant Care Bourget Nursing Home,Caressant Care Bourget Nursing Home,2279 Laval Street,"2279, rue Laval",Bourget,Bourget,ON,K0A 1E0,45.437220699029396,-75.15013736897606,8.0,PointAddress,100.0,64488231.91308928,44930102.18164006
33240,35031,Glengarry--Prescott--Russell,510,0,B,Mobile,611,Résidence St-Mathieu,Résidence St-Mathieu,3140 Gendron Road,3140 Gendron Road,Hammond,Hammond,ON,K0A 2A0,45.44103176264592,-75.23997323345903,9.0,StreetAddress,100.0,64808816.26808736,45148831.3505875
33241,35031,Glengarry--Prescott--Russell,511,0,,Mobile,618,Résidence Mon Chez Nous,Résidence Mon Chez Nous,679 Jeanne Mance Street,"679, rue Jeanne Mance",Casselman,Casselman,ON,K0A 1M0,45.308710514265016,-75.08520266804197,9.0,StreetAddress,100.0,64335162.023561254,44658687.06022096
33242,35031,Glengarry--Prescott--Russell,511,0,,Mobile,618,Résidence St-François,Résidence St-François,790 Principale Street,"790, rue Principale",Casselman,Casselman,ON,K0A 1M0,45.31620447824435,-75.0903169326565,9.0,PointAddress,100.0,64348774.2639511,44677587.675983034
33243,35031,Glengarry--Prescott--Russell,511,0,,Mobile,618,Villa St-Albert,Villa St-Albert,17 Génier Street,"17, rue Génier",St-Albert,St-Albert,ON,K0A 3C0,45.25517955079083,-75.11985120430144,9.0,StreetAddress,100.0,64490930.82295537,44691429.05883166
33244,35031,Glengarry--Prescott--Russell,512,0,,Mobile,614,Le Pavillon,Le Pavillon,1122 Notre-Dame Street,"1122, rue Notre-Dame",Embrun,Embrun,ON,K0A 1W0,45.27487128514443,-75.26619539221532,9.0,StreetAddress,100.0,65005789.56508104,45058636.88371187
33245,35031,Glengarry--Prescott--Russell,512,0,,Mobile,614,St. Jacques Residence,St. Jacques Residence,915 Notre-Dame Street,"915, rue Notre-Dame",Embrun,Embrun,ON,K0A 1W0,45.27199763219558,-75.28665702835794,9.0,StreetAddress,100.0,65081999.57122784,45105318.88250681
33246,35031,Glengarry--Prescott--Russell,513,0,,Mobile,612,L'Érablière Residence,Résidence L'Érablière,583 Limoges Road,583 Limoges Road,Limoges,Limoges,ON,K0A 1M0,45.32729320040632,-75.25019340655531,9.0,StreetAddress,100.0,64915593.98895178,45068543.56906222
33247,35031,Glengarry--Prescott--Russell,513,0,,Mobile,612,Le Genesis Nursing Home,Résidence Le Genesis,1003-G Limoges Road,1003-G Limoges Road,Limoges,Limoges,ON,K0A 2M0,45.292967388337125,-75.23002168564373,8.0,PointAddress,98.73,64863586.77231863,44988413.34070535
33248,35031,Glengarry--Prescott--Russell,513,0,,Mobile,612,Limoges Residence,Résidence Limoges,133 Ottawa Street,"133, rue Ottawa",Limoges,Limoges,ON,K0A 2M0,45.33745942834732,-75.25363437351301,9.0,StreetAddress,100.0,64921834.244302586,45086211.59190634
33249,35031,Glengarry--Prescott--Russell,513,0,,Mobile,612,St-Viateur Nursing Home,Residence St-Viateur,1003-V Chemin Limoges Road,1003-V Chemin Limoges Road,Limoges,Limoges,ON,K0A 1M0,45.292967388337125,-75.23002168564373,8.0,PointAddress,97.85,64863586.77231863,44988413.34070535
33250,35031,Glengarry--Prescott--Russell,514,0,,Mobile,603,Heritage Lodge,Pavillon Héritage,48 Wall Street,"48, rue Wall",Vankleek Hill,Vankleek Hill,ON,K0B 1R0,45.51587143779271,-74.65230459771041,9.0,StreetAddress,100.0,62716853.8263957,43850553.347099155
33251,35031,Glengarry--Prescott--Russell,514,0,,Mobile,603,McDonald Residence,Résidence McDonald,24 Bertha Street,"24, rue Bertha",Vankleek Hill,Vankleek Hill,ON,K0B 1R0,45.51784639967679,-74.64814153543162,9.0,PointAddress,100.0,62701715.7629573,43842975.1871169
33300,35032,Guelph,27,0,A,Ordinary,601,St. James Catholic High School,École secondaire St. James catholic,57 Victoria Road North,57 Victoria Road Nord,Guelph,Guelph,ON,N1E 5G9,43.55931097379211,-80.23408499393848,9.0,StreetAddress,100.0,93097804.50256896,60362649.08180713
33301,35032,Guelph,27,0,B,Mobile,601,Hadati Road Senior Apartments,Immeuble pour aînés du chemin Hadati,32 Hadati Road,32 Hadati Road,Guelph,Guelph,ON,N1E 6M5,43.56457416573348,-80.23810253384511,9.0,PointAddress,100.0,93125675.65215765,60390058.139130466
33392,35032,Guelph,113,0,A,Ordinary,606,Guelph City Hall,Guelph City Hall,1 Carden Street,"1, rue Carden",Guelph,Guelph,ON,N1H 3A1,43.543443356012894,-80.2493339028488,9.0,StreetAddress,100.0,93234338.40268128,60417754.141897954
